intersection,street_1,street_2,zipcode,longitude,latitude
N ABERDEEN ST & N OGDEN AVE,N ABERDEEN ST,N OGDEN AVE,60642,-87.65528,41.8955
N ABERDEEN ST & W ANCONA ST,N ABERDEEN ST,W ANCONA ST,60642,-87.65413,41.89408
N ABERDEEN ST & W CARROLL AVE,N ABERDEEN ST,W CARROLL AVE,60607,-87.65453,41.88773
N ABERDEEN ST & W FULTON MARKET,N ABERDEEN ST,W FULTON MARKET,60607,-87.6545,41.8867
N ABERDEEN ST & W GRAND AVE,N ABERDEEN ST,W GRAND AVE,60642,-87.65463,41.89111
N ABERDEEN ST & W HUBBARD ST,N ABERDEEN ST,W HUBBARD ST,60642,-87.6546,41.89002
N ABERDEEN ST & W HURON ST,N ABERDEEN ST,W HURON ST,60642,-87.65419,41.89439
N ABERDEEN ST & W KINZIE ST,N ABERDEEN ST,W KINZIE ST,60642,-87.65457,41.88898
N ABERDEEN ST & W LAKE ST,N ABERDEEN ST,W LAKE ST,60607,-87.65447,41.88554
N ABERDEEN ST & W MADISON ST,N ABERDEEN ST,W MADISON ST,60607,-87.65436,41.88167
N ABERDEEN ST & W RANDOLPH ST,N ABERDEEN ST,W RANDOLPH ST,60607,-87.65443,41.88417
N ABERDEEN ST & W WASHINGTON BLVD,N ABERDEEN ST,W WASHINGTON BLVD,60607,-87.6544,41.88302
N ACADEMY PL & W MADISON ST,N ACADEMY PL,W MADISON ST,60607,-87.64795,41.88177
N ACADEMY PL & W WASHINGTON BLVD,N ACADEMY PL,W WASHINGTON BLVD,60607,-87.64798,41.88314
N ADA ST & W ARBOUR PL,N ADA ST,W ARBOUR PL,60607,-87.66101,41.88838
N ADA ST & W BLACKHAWK ST,N ADA ST,W BLACKHAWK ST,60642,-87.66218,41.90706
N ADA ST & W CARROLL AVE,N ADA ST,W CARROLL AVE,60607,-87.66082,41.88747
N ADA ST & W CHICAGO AVE,N ADA ST,W CHICAGO AVE,60642,-87.6614,41.89617
N ADA ST & W CONCORD PL,N ADA ST,W CONCORD PL,60642,-87.66173,41.9122
N ADA ST & W CRYSTAL ST,N ADA ST,W CRYSTAL ST,60642,-87.66168,41.90446
N ADA ST & W ERIE ST,N ADA ST,W ERIE ST,60642,-87.66084,41.89344
N ADA ST & W EVERGREEN AVE,N ADA ST,W EVERGREEN AVE,60642,-87.66161,41.90622
N ADA ST & W FULTON ST,N ADA ST,W FULTON ST,60607,-87.6608,41.88662
N ADA ST & W GRAND AVE,N ADA ST,W GRAND AVE,60642,-87.66078,41.89104
N ADA ST & W HUBBARD ST,N ADA ST,W HUBBARD ST,60642,-87.66088,41.88995
N ADA ST & W HURON ST,N ADA ST,W HURON ST,60642,-87.66136,41.89434
N ADA ST & W KINZIE ST,N ADA ST,W KINZIE ST,60642,-87.66068,41.88886
N ADA ST & W LAKE ST,N ADA ST,W LAKE ST,60607,-87.66077,41.88544
N ADA ST & W MADISON ST,N ADA ST,W MADISON ST,60607,-87.66056,41.88156
N ADA ST & W NORTH AVE,N ADA ST,W NORTH AVE,60642,-87.66116,41.91072
N ADA ST & W OHIO ST,N ADA ST,W OHIO ST,60642,-87.66082,41.89251
N ADA ST & W RANDOLPH ST,N ADA ST,W RANDOLPH ST,60607,-87.66066,41.88408
N ADA ST & W WABANSIA AVE,N ADA ST,W WABANSIA AVE,60642,-87.66272,41.91354
N ADA ST & W WASHINGTON BLVD,N ADA ST,W WASHINGTON BLVD,60607,-87.6606,41.88292
N ALBANY AVE & N ELSTON AVE,N ALBANY AVE,N ELSTON AVE,60618,-87.70531,41.9442
N ALBANY AVE & W ADDISON ST,N ALBANY AVE,W ADDISON ST,60618,-87.70537,41.94665
N ALBANY AVE & W AINSLIE ST,N ALBANY AVE,W AINSLIE ST,60625,-87.70608,41.97029
N ALBANY AVE & W ALBION AVE,N ALBANY AVE,W ALBION AVE,60645,-87.70706,42.00105
N ALBANY AVE & W ALTGELD ST,N ALBANY AVE,W ALTGELD ST,60647,-87.70697,41.92624
N ALBANY AVE & W ARGYLE ST,N ALBANY AVE,W ARGYLE ST,60625,-87.70614,41.97211
N ALBANY AVE & W ARMITAGE AVE,N ALBANY AVE,W ARMITAGE AVE,60647,-87.70521,41.91742
N ALBANY AVE & W ARTHUR AVE,N ALBANY AVE,W ARTHUR AVE,60645,-87.70702,41.99925
N ALBANY AVE & W BELDEN AVE,N ALBANY AVE,W BELDEN AVE,60647,-87.70459,41.92325
N ALBANY AVE & W BELLE PLAINE AVE,N ALBANY AVE,W BELLE PLAINE AVE,60618,-87.70563,41.95575
N ALBANY AVE & W BELMONT AVE,N ALBANY AVE,W BELMONT AVE,60618,-87.70518,41.93935
N ALBANY AVE & W BERTEAU AVE,N ALBANY AVE,W BERTEAU AVE,60618,-87.70569,41.95757
N ALBANY AVE & W BIRCHWOOD AVE,N ALBANY AVE,W BIRCHWOOD AVE,60645,-87.7067,42.01736
N ALBANY AVE & W BLOOMINGDALE AVE,N ALBANY AVE,W BLOOMINGDALE AVE,60647,-87.70517,41.91373
N ALBANY AVE & W BYRON ST,N ALBANY AVE,W BYRON ST,60618,-87.70552,41.95213
N ALBANY AVE & W CARMEN AVE,N ALBANY AVE,W CARMEN AVE,60625,-87.70619,41.97394
N ALBANY AVE & W CARROLL AVE,N ALBANY AVE,W CARROLL AVE,60612,-87.70386,41.88755
N ALBANY AVE & W CHASE AVE,N ALBANY AVE,W CHASE AVE,60645,-87.70678,42.01373
N ALBANY AVE & W CHICAGO AVE,N ALBANY AVE,W CHICAGO AVE,60622,-87.70413,41.89558
N ALBANY AVE & W CORNELIA AVE,N ALBANY AVE,W CORNELIA AVE,60618,-87.70532,41.94476
N ALBANY AVE & W CORTLAND ST,N ALBANY AVE,W CORTLAND ST,60647,-87.70522,41.91559
N ALBANY AVE & W CULLOM AVE,N ALBANY AVE,W CULLOM AVE,60618,-87.70574,41.95938
N ALBANY AVE & W DEVON AVE,N ALBANY AVE,W DEVON AVE,60645,-87.70694,41.99743
N ALBANY AVE & W DICKENS AVE,N ALBANY AVE,W DICKENS AVE,60647,-87.70527,41.91925
N ALBANY AVE & W DIVERSEY AVE,N ALBANY AVE,W DIVERSEY AVE,60618,-87.70498,41.93204
N ALBANY AVE & W EASTWOOD AVE,N ALBANY AVE,W EASTWOOD AVE,60625,-87.70594,41.9656
N ALBANY AVE & W EDDY ST,N ALBANY AVE,W EDDY ST,60618,-87.70534,41.94577
N ALBANY AVE & W FARGO AVE,N ALBANY AVE,W FARGO AVE,60645,-87.70672,42.01645
N ALBANY AVE & W FLETCHER ST,N ALBANY AVE,W FLETCHER ST,60618,-87.70475,41.93848
N ALBANY AVE & W FOSTER AVE,N ALBANY AVE,W FOSTER AVE,60625,-87.70623,41.97577
N ALBANY AVE & W FRANKLIN BLVD,N ALBANY AVE,W FRANKLIN BLVD,60612,-87.70393,41.8901
N ALBANY AVE & W FULLERTON AVE,N ALBANY AVE,W FULLERTON AVE,60647,-87.70464,41.92474
N ALBANY AVE & W FULTON BLVD,N ALBANY AVE,W FULTON BLVD,60612,-87.70382,41.88645
N ALBANY AVE & W GEORGE ST,N ALBANY AVE,W GEORGE ST,60618,-87.70503,41.93387
N ALBANY AVE & W GRACE ST,N ALBANY AVE,W GRACE ST,60618,-87.70547,41.95029
N ALBANY AVE & W GRAND AVE,N ALBANY AVE,W GRAND AVE,60622,-87.70413,41.89731
N ALBANY AVE & W GRANVILLE AVE,N ALBANY AVE,W GRANVILLE AVE,60659,-87.7068,41.99387
N ALBANY AVE & W GUNNISON ST,N ALBANY AVE,W GUNNISON ST,60625,-87.70606,41.96938
N ALBANY AVE & W HOMER ST,N ALBANY AVE,W HOMER ST,60647,-87.70525,41.91652
N ALBANY AVE & W HOOD AVE,N ALBANY AVE,W HOOD AVE,60659,-87.70677,41.99301
N ALBANY AVE & W HOWARD ST,N ALBANY AVE,W HOWARD ST,0,-87.70666,42.01919
N ALBANY AVE & W HURON ST,N ALBANY AVE,W HURON ST,60612,-87.70404,41.89375
N ALBANY AVE & W IRVING PARK RD,N ALBANY AVE,W IRVING PARK RD,60618,-87.70557,41.95394
N ALBANY AVE & W JARLATH ST,N ALBANY AVE,W JARLATH ST,60645,-87.7068,42.01282
N ALBANY AVE & W JARVIS AVE,N ALBANY AVE,W JARVIS AVE,60645,-87.70674,42.01554
N ALBANY AVE & W JEROME ST,N ALBANY AVE,W JEROME ST,60645,-87.70668,42.01827
N ALBANY AVE & W LAKE ST,N ALBANY AVE,W LAKE ST,60612,-87.70375,41.88421
N ALBANY AVE & W LAWRENCE AVE,N ALBANY AVE,W LAWRENCE AVE,60625,-87.70603,41.96848
N ALBANY AVE & W LELAND AVE,N ALBANY AVE,W LELAND AVE,60625,-87.70597,41.96665
N ALBANY AVE & W LOGAN BLVD,N ALBANY AVE,W LOGAN BLVD,60647,-87.70488,41.9284
N ALBANY AVE & W MADISON ST,N ALBANY AVE,W MADISON ST,60612,-87.70366,41.881
N ALBANY AVE & W MAYPOLE AVE,N ALBANY AVE,W MAYPOLE AVE,60612,-87.70374,41.88373
N ALBANY AVE & W MEDILL AVE,N ALBANY AVE,W MEDILL AVE,60647,-87.70461,41.92378
N ALBANY AVE & W MOFFAT ST,N ALBANY AVE,W MOFFAT ST,60647,-87.70519,41.91469
N ALBANY AVE & W MONTROSE AVE,N ALBANY AVE,W MONTROSE AVE,60625,-87.7058,41.9612
N ALBANY AVE & W NORTH AVE,N ALBANY AVE,W NORTH AVE,60647,-87.70451,41.91015
N ALBANY AVE & W OHIO ST,N ALBANY AVE,W OHIO ST,60612,-87.70398,41.89192
N ALBANY AVE & W PALMER BLVD,N ALBANY AVE,W PALMER BLVD,60647,-87.70532,41.92068
N ALBANY AVE & W PETERSON AVE,N ALBANY AVE,W PETERSON AVE,60659,-87.70668,41.9904
N ALBANY AVE & W RANDOLPH ST,N ALBANY AVE,W RANDOLPH ST,60612,-87.70372,41.88329
N ALBANY AVE & W ROSCOE ST,N ALBANY AVE,W ROSCOE ST,60618,-87.70527,41.94275
N ALBANY AVE & W ROSEMONT AVE,N ALBANY AVE,W ROSEMONT AVE,60659,-87.70686,41.99566
N ALBANY AVE & W SCHOOL ST,N ALBANY AVE,W SCHOOL ST,60618,-87.70522,41.94105
N ALBANY AVE & W SCHUBERT AVE,N ALBANY AVE,W SCHUBERT AVE,60647,-87.70493,41.93022
N ALBANY AVE & W SHERWIN AVE,N ALBANY AVE,W SHERWIN AVE,60645,-87.70676,42.01464
N ALBANY AVE & W SUNNYSIDE AVE,N ALBANY AVE,W SUNNYSIDE AVE,60625,-87.70586,41.96303
N ALBANY AVE & W TOUHY AVE,N ALBANY AVE,W TOUHY AVE,60645,-87.70682,42.01191
N ALBANY AVE & W WABANSIA AVE,N ALBANY AVE,W WABANSIA AVE,60647,-87.70457,41.91196
N ALBANY AVE & W WALNUT ST,N ALBANY AVE,W WALNUT ST,60612,-87.70379,41.88543
N ALBANY AVE & W WARREN BLVD,N ALBANY AVE,W WARREN BLVD,60612,-87.70369,41.88192
N ALBANY AVE & W WASHINGTON BLVD,N ALBANY AVE,W WASHINGTON BLVD,60612,-87.70371,41.88282
N ALBANY AVE & W WAVELAND AVE,N ALBANY AVE,W WAVELAND AVE,60618,-87.70542,41.94847
N ALBANY AVE & W WELLINGTON AVE,N ALBANY AVE,W WELLINGTON AVE,60618,-87.70508,41.9357
N ALBANY AVE & W WILSON AVE,N ALBANY AVE,W WILSON AVE,60625,-87.70591,41.96472
N ALBANY AVE & W WINONA ST,N ALBANY AVE,W WINONA ST,60625,-87.70624,41.97455
N ALBANY DR & W LUIS MUNOZ MARIN DR,N ALBANY DR,W LUIS MUNOZ MARIN DR,60622,-87.7045,41.90962
N ALGONQUIN AVE & N CALDWELL AVE,N ALGONQUIN AVE,N CALDWELL AVE,60646,-87.7676,41.99772
N ALGONQUIN AVE & N HIAWATHA AVE,N ALGONQUIN AVE,N HIAWATHA AVE,60646,-87.765,42.00082
N ALGONQUIN AVE & N IONIA AVE,N ALGONQUIN AVE,N IONIA AVE,60646,-87.76372,42.00236
N ALGONQUIN AVE & N LEHIGH AVE,N ALGONQUIN AVE,N LEHIGH AVE,60646,-87.76659,41.99892
N ALGONQUIN AVE & N SAUGANASH AVE,N ALGONQUIN AVE,N SAUGANASH AVE,60646,-87.76327,42.00436
N ALGONQUIN AVE & N SIOUX AVE,N ALGONQUIN AVE,N SIOUX AVE,60646,-87.76437,42.0016
N ALGONQUIN AVE & N TAHOMA AVE,N ALGONQUIN AVE,N TAHOMA AVE,60646,-87.76565,42.00006
N ALGONQUIN AVE & W LUNT AVE,N ALGONQUIN AVE,W LUNT AVE,60646,-87.76288,42.00782
N ALGONQUIN AVE & W MORSE AVE,N ALGONQUIN AVE,W MORSE AVE,60646,-87.76284,42.0064
N ALLEN AVE & N MILWAUKEE AVE,N ALLEN AVE,N MILWAUKEE AVE,60618,-87.7153,41.93389
N ALTA VISTA TER & W BYRON ST,N ALTA VISTA TER,W BYRON ST,60613,-87.65654,41.95265
N ALTA VISTA TER & W GRACE ST,N ALTA VISTA TER,W GRACE ST,60613,-87.65649,41.95109
N ANCHOR DR & W RIVERVIEW PKWY,N ANCHOR DR,W RIVERVIEW PKWY,60618,-87.69642,41.94088
N ANTHON AVE & W LAWRENCE AVE,N ANTHON AVE,W LAWRENCE AVE,60706,-87.84069,41.96653
N ANTHON AVE & W LELAND AVE,N ANTHON AVE,W LELAND AVE,60656,-87.84069,41.9651
N ANTHON AVE & W WILSON AVE,N ANTHON AVE,W WILSON AVE,60656,-87.8407,41.9637
N ARMOUR ST & W CHICAGO AVE,N ARMOUR ST,W CHICAGO AVE,60642,-87.66566,41.8961
N ARMOUR ST & W ERIE ST,N ARMOUR ST,W ERIE ST,60642,-87.66558,41.89337
N ARMOUR ST & W FERDINAND ST,N ARMOUR ST,W FERDINAND ST,60642,-87.6655,41.89045
N ARMOUR ST & W GRAND AVE,N ARMOUR ST,W GRAND AVE,60642,-87.66552,41.891
N ARMOUR ST & W HUBBARD ST,N ARMOUR ST,W HUBBARD ST,60642,-87.66548,41.88991
N ARMOUR ST & W HURON ST,N ARMOUR ST,W HURON ST,60642,-87.66561,41.89428
N ARMOUR ST & W KINZIE ST,N ARMOUR ST,W KINZIE ST,60642,-87.66545,41.88886
N ARMOUR ST & W OHIO ST,N ARMOUR ST,W OHIO ST,60642,-87.66555,41.89245
N ARMOUR ST & W SUPERIOR ST,N ARMOUR ST,W SUPERIOR ST,60642,-87.66563,41.89518
N ARMSTRONG CT & W ARMSTRONG RD,N ARMSTRONG CT,W ARMSTRONG RD,0,-87.92445,42.00279
N ARMSTRONG CT & W OLD HIGGINS RD,N ARMSTRONG CT,W OLD HIGGINS RD,0,-87.92447,42.00428
N ARMSTRONG RD & W ARMSTRONG RD,N ARMSTRONG RD,W ARMSTRONG RD,0,-87.92223,42.00289
N ARMSTRONG RD & W OLD HIGGINS RD,N ARMSTRONG RD,W OLD HIGGINS RD,0,-87.92218,42.00395
N ARTESIAN AVE & W ADDISON ST,N ARTESIAN AVE,W ADDISON ST,60618,-87.68947,41.94673
N ARTESIAN AVE & W ALBION AVE,N ARTESIAN AVE,W ALBION AVE,60645,-87.6912,42.00135
N ARTESIAN AVE & W ALTGELD ST,N ARTESIAN AVE,W ALTGELD ST,60647,-87.68893,41.92671
N ARTESIAN AVE & W ARDMORE AVE,N ARTESIAN AVE,W ARDMORE AVE,60659,-87.69077,41.9868
N ARTESIAN AVE & W ARTHUR AVE,N ARTESIAN AVE,W ARTHUR AVE,60645,-87.69115,41.99952
N ARTESIAN AVE & W BALMORAL AVE,N ARTESIAN AVE,W BALMORAL AVE,60625,-87.69054,41.97952
N ARTESIAN AVE & W BIRCHWOOD AVE,N ARTESIAN AVE,W BIRCHWOOD AVE,60645,-87.69137,42.01769
N ARTESIAN AVE & W BLOOMINGDALE AVE,N ARTESIAN AVE,W BLOOMINGDALE AVE,60647,-87.68854,41.91398
N ARTESIAN AVE & W BRYN MAWR AVE,N ARTESIAN AVE,W BRYN MAWR AVE,60659,-87.69066,41.98316
N ARTESIAN AVE & W CATALPA AVE,N ARTESIAN AVE,W CATALPA AVE,60625,-87.69059,41.98137
N ARTESIAN AVE & W DEVON AVE,N ARTESIAN AVE,W DEVON AVE,60645,-87.6911,41.99771
N ARTESIAN AVE & W DIVERSEY AVE,N ARTESIAN AVE,W DIVERSEY AVE,60647,-87.68913,41.93216
N ARTESIAN AVE & W DIVISION ST,N ARTESIAN AVE,W DIVISION ST,60622,-87.68826,41.903
N ARTESIAN AVE & W FARGO AVE,N ARTESIAN AVE,W FARGO AVE,60645,-87.69138,42.01679
N ARTESIAN AVE & W FULLERTON AVE,N ARTESIAN AVE,W FULLERTON AVE,60647,-87.68887,41.92489
N ARTESIAN AVE & W FULTON ST,N ARTESIAN AVE,W FULTON ST,60612,-87.6878,41.88662
N ARTESIAN AVE & W GLENLAKE AVE,N ARTESIAN AVE,W GLENLAKE AVE,60659,-87.69094,41.99226
N ARTESIAN AVE & W GRAND AVE,N ARTESIAN AVE,W GRAND AVE,60612,-87.68793,41.89085
N ARTESIAN AVE & W GRANVILLE AVE,N ARTESIAN AVE,W GRANVILLE AVE,60659,-87.69099,41.99408
N ARTESIAN AVE & W HIRSCH ST,N ARTESIAN AVE,W HIRSCH ST,60622,-87.68835,41.90666
N ARTESIAN AVE & W HOLLYWOOD AVE,N ARTESIAN AVE,W HOLLYWOOD AVE,60659,-87.69072,41.98498
N ARTESIAN AVE & W HUBBARD ST,N ARTESIAN AVE,W HUBBARD ST,60612,-87.6879,41.88954
N ARTESIAN AVE & W LAKE ST,N ARTESIAN AVE,W LAKE ST,60612,-87.68776,41.88459
N ARTESIAN AVE & W LAWRENCE AVE,N ARTESIAN AVE,W LAWRENCE AVE,60625,-87.69013,41.9686
N ARTESIAN AVE & W LE MOYNE ST,N ARTESIAN AVE,W LE MOYNE ST,60622,-87.6884,41.90848
N ARTESIAN AVE & W LELAND AVE,N ARTESIAN AVE,W LELAND AVE,60625,-87.69007,41.96677
N ARTESIAN AVE & W LOGAN BLVD,N ARTESIAN AVE,W LOGAN BLVD,60647,-87.68914,41.92816
N ARTESIAN AVE & W MONTROSE AVE,N ARTESIAN AVE,W MONTROSE AVE,60625,-87.68991,41.9613
N ARTESIAN AVE & W NORTH AVE,N ARTESIAN AVE,W NORTH AVE,60647,-87.68844,41.91031
N ARTESIAN AVE & W NORTH SHORE AVE,N ARTESIAN AVE,W NORTH SHORE AVE,60645,-87.69124,42.00317
N ARTESIAN AVE & W OHIO ST,N ARTESIAN AVE,W OHIO ST,60612,-87.68796,41.8921
N ARTESIAN AVE & W PETERSON AVE,N ARTESIAN AVE,W PETERSON AVE,60659,-87.69088,41.99049
N ARTESIAN AVE & W POTOMAC AVE,N ARTESIAN AVE,W POTOMAC AVE,60622,-87.68831,41.90483
N ARTESIAN AVE & W PRATT BLVD,N ARTESIAN AVE,W PRATT BLVD,60645,-87.69128,42.00501
N ARTESIAN AVE & W ROSEMONT AVE,N ARTESIAN AVE,W ROSEMONT AVE,60659,-87.69105,41.99589
N ARTESIAN AVE & W SCHUBERT AVE,N ARTESIAN AVE,W SCHUBERT AVE,60647,-87.68906,41.93034
N ARTESIAN AVE & W SUNNYSIDE AVE,N ARTESIAN AVE,W SUNNYSIDE AVE,60625,-87.68996,41.96313
N ARTESIAN AVE & W THORNDALE AVE,N ARTESIAN AVE,W THORNDALE AVE,60659,-87.69083,41.98862
N ARTESIAN AVE & W WABANSIA AVE,N ARTESIAN AVE,W WABANSIA AVE,60647,-87.68848,41.91212
N ARTESIAN AVE & W WAVELAND AVE,N ARTESIAN AVE,W WAVELAND AVE,60618,-87.68952,41.94853
N ARTESIAN AVE & W WILSON AVE,N ARTESIAN AVE,W WILSON AVE,60625,-87.69001,41.96485
N ASHLAND AVE & N CLARK ST,N ASHLAND AVE,N CLARK ST,60626,-87.6709,41.99889
N ASHLAND AVE & N CLYBOURN AVE,N ASHLAND AVE,N CLYBOURN AVE,60614,-87.66811,41.92428
N ASHLAND AVE & N ELSTON AVE,N ASHLAND AVE,N ELSTON AVE,60614,-87.66809,41.91855
N ASHLAND AVE & N MILWAUKEE AVE,N ASHLAND AVE,N MILWAUKEE AVE,60622,-87.66751,41.90402
N ASHLAND AVE & N ROGERS AVE,N ASHLAND AVE,N ROGERS AVE,60626,-87.67105,42.01803
N ASHLAND AVE & W ADDISON ST,N ASHLAND AVE,W ADDISON ST,60613,-87.66886,41.94699
N ASHLAND AVE & W AINSLIE ST,N ASHLAND AVE,W AINSLIE ST,60640,-87.66952,41.97185
N ASHLAND AVE & W ALBION AVE,N ASHLAND AVE,W ALBION AVE,60626,-87.67049,42.00173
N ASHLAND AVE & W ALTGELD ST,N ASHLAND AVE,W ALTGELD ST,60614,-87.66821,41.92696
N ASHLAND AVE & W ARBOUR PL,N ASHLAND AVE,W ARBOUR PL,60607,-87.66706,41.88824
N ASHLAND AVE & W ARMITAGE AVE,N ASHLAND AVE,W ARMITAGE AVE,60614,-87.66796,41.91793
N ASHLAND AVE & W ARTHUR AVE,N ASHLAND AVE,W ARTHUR AVE,60626,-87.67044,41.99993
N ASHLAND AVE & W AUGUSTA BLVD,N ASHLAND AVE,W AUGUSTA BLVD,60622,-87.66739,41.89971
N ASHLAND AVE & W BALMORAL AVE,N ASHLAND AVE,W BALMORAL AVE,60640,-87.66971,41.97982
N ASHLAND AVE & W BARRY AVE,N ASHLAND AVE,W BARRY AVE,60657,-87.6686,41.93786
N ASHLAND AVE & W BEACH AVE,N ASHLAND AVE,W BEACH AVE,60622,-87.66761,41.90761
N ASHLAND AVE & W BELLE PLAINE AVE,N ASHLAND AVE,W BELLE PLAINE AVE,60613,-87.6691,41.95613
N ASHLAND AVE & W BELMONT AVE,N ASHLAND AVE,W BELMONT AVE,60657,-87.66866,41.9397
N ASHLAND AVE & W BERTEAU AVE,N ASHLAND AVE,W BERTEAU AVE,60613,-87.66915,41.95795
N ASHLAND AVE & W BERWYN AVE,N ASHLAND AVE,W BERWYN AVE,60640,-87.66966,41.978
N ASHLAND AVE & W BIRCHWOOD AVE,N ASHLAND AVE,W BIRCHWOOD AVE,60626,-87.67036,42.01813
N ASHLAND AVE & W BLACKHAWK ST,N ASHLAND AVE,W BLACKHAWK ST,60622,-87.66759,41.90701
N ASHLAND AVE & W BRYN MAWR AVE,N ASHLAND AVE,W BRYN MAWR AVE,60660,-87.66982,41.98348
N ASHLAND AVE & W BYRON ST,N ASHLAND AVE,W BYRON ST,60613,-87.669,41.95247
N ASHLAND AVE & W CARMEN AVE,N ASHLAND AVE,W CARMEN AVE,60640,-87.66958,41.97434
N ASHLAND AVE & W CARROLL AVE,N ASHLAND AVE,W CARROLL AVE,60607,-87.66704,41.88738
N ASHLAND AVE & W CATALPA AVE,N ASHLAND AVE,W CATALPA AVE,60640,-87.66977,41.98165
N ASHLAND AVE & W CHESTNUT ST,N ASHLAND AVE,W CHESTNUT ST,60622,-87.66734,41.89789
N ASHLAND AVE & W CHICAGO AVE,N ASHLAND AVE,W CHICAGO AVE,60622,-87.66729,41.89607
N ASHLAND AVE & W COLUMBIA AVE,N ASHLAND AVE,W COLUMBIA AVE,60626,-87.67057,42.00443
N ASHLAND AVE & W CORNELIA AVE,N ASHLAND AVE,W CORNELIA AVE,60657,-87.66881,41.94517
N ASHLAND AVE & W CORTEZ ST,N ASHLAND AVE,W CORTEZ ST,60622,-87.66743,41.90104
N ASHLAND AVE & W CORTLAND ST,N ASHLAND AVE,W CORTLAND ST,60622,-87.6678,41.91613
N ASHLAND AVE & W CULLOM AVE,N ASHLAND AVE,W CULLOM AVE,60613,-87.6692,41.95977
N ASHLAND AVE & W DEVON AVE,N ASHLAND AVE,W DEVON AVE,60626,-87.67047,41.99808
N ASHLAND AVE & W DIVERSEY PKWY,N ASHLAND AVE,W DIVERSEY PKWY,60614,-87.66839,41.9324
N ASHLAND AVE & W DIVISION ST,N ASHLAND AVE,W DIVISION ST,60622,-87.6675,41.90335
N ASHLAND AVE & W EDGEWATER AVE,N ASHLAND AVE,W EDGEWATER AVE,60660,-87.66987,41.98594
N ASHLAND AVE & W ERIE ST,N ASHLAND AVE,W ERIE ST,60622,-87.66721,41.89334
N ASHLAND AVE & W FARGO AVE,N ASHLAND AVE,W FARGO AVE,60626,-87.67033,42.01706
N ASHLAND AVE & W FARRAGUT AVE,N ASHLAND AVE,W FARRAGUT AVE,60640,-87.66964,41.97708
N ASHLAND AVE & W FERDINAND ST,N ASHLAND AVE,W FERDINAND ST,60622,-87.66713,41.89056
N ASHLAND AVE & W FOSTER AVE,N ASHLAND AVE,W FOSTER AVE,60640,-87.66961,41.97617
N ASHLAND AVE & W FRY ST,N ASHLAND AVE,W FRY ST,60622,-87.66732,41.89692
N ASHLAND AVE & W FULLERTON AVE,N ASHLAND AVE,W FULLERTON AVE,60614,-87.66815,41.92515
N ASHLAND AVE & W FULTON ST,N ASHLAND AVE,W FULTON ST,60612,-87.66702,41.88694
N ASHLAND AVE & W GEORGE ST,N ASHLAND AVE,W GEORGE ST,60657,-87.66846,41.93423
N ASHLAND AVE & W GRACE ST,N ASHLAND AVE,W GRACE ST,60613,-87.66896,41.95064
N ASHLAND AVE & W GRAND AVE,N ASHLAND AVE,W GRAND AVE,60622,-87.66714,41.89098
N ASHLAND AVE & W GREGORY ST,N ASHLAND AVE,W GREGORY ST,60640,-87.66979,41.98256
N ASHLAND AVE & W HADDON AVE,N ASHLAND AVE,W HADDON AVE,60622,-87.66747,41.90228
N ASHLAND AVE & W HENDERSON ST,N ASHLAND AVE,W HENDERSON ST,60657,-87.66874,41.94242
N ASHLAND AVE & W HOLLYWOOD AVE,N ASHLAND AVE,W HOLLYWOOD AVE,60660,-87.66986,41.98512
N ASHLAND AVE & W HOMER ST,N ASHLAND AVE,W HOMER ST,60622,-87.66776,41.9171
N ASHLAND AVE & W HOWARD ST,N ASHLAND AVE,W HOWARD ST,60626,-87.67133,42.01937
N ASHLAND AVE & W HUBBARD ST,N ASHLAND AVE,W HUBBARD ST,60622,-87.66711,41.88989
N ASHLAND AVE & W HURON ST,N ASHLAND AVE,W HURON ST,60622,-87.66724,41.89426
N ASHLAND AVE & W IRVING PARK RD,N ASHLAND AVE,W IRVING PARK RD,60613,-87.66905,41.95429
N ASHLAND AVE & W JONQUIL TER,N ASHLAND AVE,W JONQUIL TER,60626,-87.67072,42.02115
N ASHLAND AVE & W JULIAN ST,N ASHLAND AVE,W JULIAN ST,60622,-87.66763,41.90836
N ASHLAND AVE & W JUNEWAY TER,N ASHLAND AVE,W JUNEWAY TER,60626,-87.67071,42.02227
N ASHLAND AVE & W KINZIE ST,N ASHLAND AVE,W KINZIE ST,60622,-87.66707,41.88885
N ASHLAND AVE & W LAKE ST,N ASHLAND AVE,W LAKE ST,60612,-87.66696,41.88533
N ASHLAND AVE & W LAWRENCE AVE,N ASHLAND AVE,W LAWRENCE AVE,60640,-87.66944,41.96888
N ASHLAND AVE & W LE MOYNE ST,N ASHLAND AVE,W LE MOYNE ST,60622,-87.66765,41.90911
N ASHLAND AVE & W LELAND AVE,N ASHLAND AVE,W LELAND AVE,60640,-87.6694,41.96705
N ASHLAND AVE & W MADISON ST,N ASHLAND AVE,W MADISON ST,60607,-87.6668,41.88146
N ASHLAND AVE & W MAYPOLE AVE,N ASHLAND AVE,W MAYPOLE AVE,60612,-87.66689,41.88427
N ASHLAND AVE & W MELROSE ST,N ASHLAND AVE,W MELROSE ST,60657,-87.66868,41.94061
N ASHLAND AVE & W MONTANA ST,N ASHLAND AVE,W MONTANA ST,60614,-87.66818,41.92606
N ASHLAND AVE & W MONTROSE AVE,N ASHLAND AVE,W MONTROSE AVE,60640,-87.66926,41.96159
N ASHLAND AVE & W NELSON ST,N ASHLAND AVE,W NELSON ST,60657,-87.66856,41.93696
N ASHLAND AVE & W NORTH AVE,N ASHLAND AVE,W NORTH AVE,60622,-87.66769,41.91063
N ASHLAND AVE & W NORTH SHORE AVE,N ASHLAND AVE,W NORTH SHORE AVE,60626,-87.67054,42.00355
N ASHLAND AVE & W OAKDALE AVE,N ASHLAND AVE,W OAKDALE AVE,60657,-87.66849,41.93514
N ASHLAND AVE & W OHIO ST,N ASHLAND AVE,W OHIO ST,60622,-87.66718,41.89243
N ASHLAND AVE & W OLIVE AVE,N ASHLAND AVE,W OLIVE AVE,60660,-87.66984,41.98433
N ASHLAND AVE & W ONTARIO ST,N ASHLAND AVE,W ONTARIO ST,60622,-87.6672,41.89278
N ASHLAND AVE & W PEARSON ST,N ASHLAND AVE,W PEARSON ST,60622,-87.66733,41.89734
N ASHLAND AVE & W PIERCE AVE,N ASHLAND AVE,W PIERCE AVE,60622,-87.66767,41.90987
N ASHLAND AVE & W PRATT BLVD,N ASHLAND AVE,W PRATT BLVD,60626,-87.67059,42.00537
N ASHLAND AVE & W RASCHER AVE,N ASHLAND AVE,W RASCHER AVE,60640,-87.66974,41.98074
N ASHLAND AVE & W ROSCOE ST,N ASHLAND AVE,W ROSCOE ST,60657,-87.66876,41.94334
N ASHLAND AVE & W ROSEHILL DR,N ASHLAND AVE,W ROSEHILL DR,60660,-87.66987,41.98675
N ASHLAND AVE & W SCHOOL ST,N ASHLAND AVE,W SCHOOL ST,60657,-87.66871,41.94152
N ASHLAND AVE & W SUMMERDALE AVE,N ASHLAND AVE,W SUMMERDALE AVE,60640,-87.66969,41.97891
N ASHLAND AVE & W SUNNYSIDE AVE,N ASHLAND AVE,W SUNNYSIDE AVE,60640,-87.6693,41.96341
N ASHLAND AVE & W SUPERIOR ST,N ASHLAND AVE,W SUPERIOR ST,60622,-87.66727,41.89516
N ASHLAND AVE & W THOMAS ST,N ASHLAND AVE,W THOMAS ST,60622,-87.66744,41.90152
N ASHLAND AVE & W WABANSIA AVE,N ASHLAND AVE,W WABANSIA AVE,60622,-87.66774,41.91245
N ASHLAND AVE & W WALLEN AVE,N ASHLAND AVE,W WALLEN AVE,60626,-87.67052,42.00264
N ASHLAND AVE & W WALNUT ST,N ASHLAND AVE,W WALNUT ST,60612,-87.667,41.88615
N ASHLAND AVE & W WALTON ST,N ASHLAND AVE,W WALTON ST,60622,-87.66736,41.89857
N ASHLAND AVE & W WARREN BLVD,N ASHLAND AVE,W WARREN BLVD,60612,-87.66684,41.88238
N ASHLAND AVE & W WASHINGTON BLVD,N ASHLAND AVE,W WASHINGTON BLVD,60612,-87.66687,41.8833
N ASHLAND AVE & W WAVELAND AVE,N ASHLAND AVE,W WAVELAND AVE,60613,-87.66891,41.94881
N ASHLAND AVE & W WEBSTER AVE,N ASHLAND AVE,W WEBSTER AVE,60614,-87.66863,41.92155
N ASHLAND AVE & W WELLINGTON AVE,N ASHLAND AVE,W WELLINGTON AVE,60657,-87.66853,41.93605
N ASHLAND AVE & W WILSON AVE,N ASHLAND AVE,W WILSON AVE,60640,-87.66935,41.96523
N ASHLAND AVE & W WINNEMAC AVE,N ASHLAND AVE,W WINNEMAC AVE,60640,-87.66956,41.97344
N ASHLAND AVE & W WINONA ST,N ASHLAND AVE,W WINONA ST,60640,-87.6696,41.97525
N ASHLAND AVE & W WOLFRAM ST,N ASHLAND AVE,W WOLFRAM ST,60657,-87.66843,41.93331
N ASHLAND AVE & W WRIGHTWOOD AVE,N ASHLAND AVE,W WRIGHTWOOD AVE,60614,-87.66827,41.92878
N ASHLAND BLVD & W CHASE AVE,N ASHLAND BLVD,W CHASE AVE,60626,-87.67024,42.01384
N ASHLAND BLVD & W ESTES AVE,N ASHLAND BLVD,W ESTES AVE,60626,-87.67016,42.01149
N ASHLAND BLVD & W FARWELL AVE,N ASHLAND BLVD,W FARWELL AVE,60626,-87.66999,42.00662
N ASHLAND BLVD & W GREENLEAF AVE,N ASHLAND BLVD,W GREENLEAF AVE,60626,-87.67012,42.01027
N ASHLAND BLVD & W JARVIS AVE,N ASHLAND BLVD,W JARVIS AVE,60626,-87.67031,42.01599
N ASHLAND BLVD & W LUNT AVE,N ASHLAND BLVD,W LUNT AVE,60626,-87.67007,42.00905
N ASHLAND BLVD & W MORSE AVE,N ASHLAND BLVD,W MORSE AVE,60626,-87.67003,42.00784
N ASHLAND BLVD & W PRATT BLVD,N ASHLAND BLVD,W PRATT BLVD,60626,-87.66995,42.00539
N ASHLAND BLVD & W SHERWIN AVE,N ASHLAND BLVD,W SHERWIN AVE,60626,-87.67028,42.01493
N ASHLAND BLVD & W TOUHY AVE,N ASHLAND BLVD,W TOUHY AVE,60626,-87.6702,42.01271
N ASTOR ST & E BANKS ST,N ASTOR ST,E BANKS ST,60610,-87.62751,41.90678
N ASTOR ST & E BURTON PL,N ASTOR ST,E BURTON PL,60610,-87.62761,41.9095
N ASTOR ST & E DIVISION ST,N ASTOR ST,E DIVISION ST,60610,-87.62686,41.90397
N ASTOR ST & E GOETHE ST,N ASTOR ST,E GOETHE ST,60610,-87.62731,41.90583
N ASTOR ST & E NORTH AVE,N ASTOR ST,E NORTH AVE,60610,-87.62766,41.91124
N ASTOR ST & E SCHILLER ST,N ASTOR ST,E SCHILLER ST,60610,-87.62756,41.90782
N ASTOR ST & E SCOTT ST,N ASTOR ST,E SCOTT ST,60610,-87.62708,41.90488
N AUSTIN AV JFK XR & N AVONDALE AVE,N AUSTIN AV JFK XR,N AVONDALE AVE,60630,-87.78,41.97967
N AUSTIN AVE & N ELSTON AVE,N AUSTIN AVE,N ELSTON AVE,60646,-87.7779,41.98996
N AUSTIN AVE & N MILWAUKEE AVE,N AUSTIN AVE,N MILWAUKEE AVE,60646,-87.77796,41.98686
N AUSTIN AVE & N NORTHWEST HWY,N AUSTIN AVE,N NORTHWEST HWY,60630,-87.77809,41.98059
N AUSTIN AVE & W ADDISON ST,N AUSTIN AVE,W ADDISON ST,60634,-87.7765,41.94577
N AUSTIN AVE & W ALTGELD ST,N AUSTIN AVE,W ALTGELD ST,60639,-87.77578,41.92565
N AUSTIN AVE & W ARDMORE AVE,N AUSTIN AVE,W ARDMORE AVE,60646,-87.77796,41.98656
N AUSTIN AVE & W ARGYLE ST,N AUSTIN AVE,W ARGYLE ST,60630,-87.77825,41.9721
N AUSTIN AVE & W BARRY AVE,N AUSTIN AVE,W BARRY AVE,60634,-87.77615,41.93662
N AUSTIN AVE & W BELDEN AVE,N AUSTIN AVE,W BELDEN AVE,60639,-87.77565,41.92201
N AUSTIN AVE & W BELLE PLAINE AVE,N AUSTIN AVE,W BELLE PLAINE AVE,60634,-87.77684,41.95488
N AUSTIN AVE & W BELMONT AVE,N AUSTIN AVE,W BELMONT AVE,60634,-87.77621,41.93845
N AUSTIN AVE & W BERENICE AVE,N AUSTIN AVE,W BERENICE AVE,60634,-87.77668,41.95031
N AUSTIN AVE & W BERTEAU AVE,N AUSTIN AVE,W BERTEAU AVE,60634,-87.7769,41.9567
N AUSTIN AVE & W BERWYN AVE,N AUSTIN AVE,W BERWYN AVE,60630,-87.77814,41.97748
N AUSTIN AVE & W BLOOMINGDALE AVE,N AUSTIN AVE,W BLOOMINGDALE AVE,60639,-87.77534,41.9129
N AUSTIN AVE & W BRYN MAWR AVE,N AUSTIN AVE,W BRYN MAWR AVE,60646,-87.77804,41.9829
N AUSTIN AVE & W BYRON ST,N AUSTIN AVE,W BYRON ST,60634,-87.77671,41.95121
N AUSTIN AVE & W CARMEN AVE,N AUSTIN AVE,W CARMEN AVE,60630,-87.77822,41.97393
N AUSTIN AVE & W CORNELIA AVE,N AUSTIN AVE,W CORNELIA AVE,60634,-87.77643,41.94394
N AUSTIN AVE & W CORTLAND ST,N AUSTIN AVE,W CORTLAND ST,60639,-87.77539,41.91424
N AUSTIN AVE & W CULLOM AVE,N AUSTIN AVE,W CULLOM AVE,60634,-87.77696,41.95853
N AUSTIN AVE & W DAKIN ST,N AUSTIN AVE,W DAKIN ST,60634,-87.77674,41.95211
N AUSTIN AVE & W DICKENS AVE,N AUSTIN AVE,W DICKENS AVE,60639,-87.77552,41.91791
N AUSTIN AVE & W DIVERSEY AVE,N AUSTIN AVE,W DIVERSEY AVE,60634,-87.77597,41.93114
N AUSTIN AVE & W EASTWOOD AVE,N AUSTIN AVE,W EASTWOOD AVE,60630,-87.77717,41.96492
N AUSTIN AVE & W EDDY ST,N AUSTIN AVE,W EDDY ST,60634,-87.77646,41.94486
N AUSTIN AVE & W FLETCHER ST,N AUSTIN AVE,W FLETCHER ST,60634,-87.77618,41.93754
N AUSTIN AVE & W FOSTER AVE,N AUSTIN AVE,W FOSTER AVE,60630,-87.77818,41.97567
N AUSTIN AVE & W FULLERTON AVE,N AUSTIN AVE,W FULLERTON AVE,60639,-87.77572,41.92383
N AUSTIN AVE & W GEORGE ST,N AUSTIN AVE,W GEORGE ST,60634,-87.77603,41.93296
N AUSTIN AVE & W GIDDINGS ST,N AUSTIN AVE,W GIDDINGS ST,60630,-87.77723,41.96667
N AUSTIN AVE & W GRACE ST,N AUSTIN AVE,W GRACE ST,60634,-87.77664,41.94941
N AUSTIN AVE & W GRAND AVE,N AUSTIN AVE,W GRAND AVE,60639,-87.7756,41.92056
N AUSTIN AVE & W GUNNISON ST,N AUSTIN AVE,W GUNNISON ST,60630,-87.77823,41.96853
N AUSTIN AVE & W HENDERSON ST,N AUSTIN AVE,W HENDERSON ST,60634,-87.77632,41.94119
N AUSTIN AVE & W HIGGINS AVE,N AUSTIN AVE,W HIGGINS AVE,60630,-87.77823,41.97317
N AUSTIN AVE & W IRVING PARK RD,N AUSTIN AVE,W IRVING PARK RD,60634,-87.77677,41.95306
N AUSTIN AVE & W LAWRENCE AVE,N AUSTIN AVE,W LAWRENCE AVE,60630,-87.77727,41.96765
N AUSTIN AVE & W LELAND AVE,N AUSTIN AVE,W LELAND AVE,60630,-87.7772,41.96583
N AUSTIN AVE & W MATSON AVE,N AUSTIN AVE,W MATSON AVE,60646,-87.77785,41.99291
N AUSTIN AVE & W MELROSE ST,N AUSTIN AVE,W MELROSE ST,60634,-87.77625,41.93936
N AUSTIN AVE & W MIAMI AVE,N AUSTIN AVE,W MIAMI AVE,60646,-87.77787,41.9917
N AUSTIN AVE & W MONTROSE AVE,N AUSTIN AVE,W MONTROSE AVE,60630,-87.77702,41.96035
N AUSTIN AVE & W NELSON ST,N AUSTIN AVE,W NELSON ST,60634,-87.77612,41.93571
N AUSTIN AVE & W NEWPORT AVE,N AUSTIN AVE,W NEWPORT AVE,60634,-87.7764,41.94303
N AUSTIN AVE & W NORTH AVE,N AUSTIN AVE,W NORTH AVE,60639,-87.7756,41.90925
N AUSTIN AVE & W PATTERSON AVE,N AUSTIN AVE,W PATTERSON AVE,60634,-87.77654,41.94668
N AUSTIN AVE & W PETERSON AVE,N AUSTIN AVE,W PETERSON AVE,60646,-87.77789,41.9902
N AUSTIN AVE & W ROSCOE ST,N AUSTIN AVE,W ROSCOE ST,60634,-87.77636,41.94211
N AUSTIN AVE & W SCHOOL ST,N AUSTIN AVE,W SCHOOL ST,60634,-87.77629,41.94028
N AUSTIN AVE & W SCHUBERT AVE,N AUSTIN AVE,W SCHUBERT AVE,60639,-87.7759,41.92931
N AUSTIN AVE & W SEMINOLE ST,N AUSTIN AVE,W SEMINOLE ST,60646,-87.778,41.98473
N AUSTIN AVE & W STRONG ST,N AUSTIN AVE,W STRONG ST,60630,-87.77829,41.97031
N AUSTIN AVE & W SUNNYSIDE AVE,N AUSTIN AVE,W SUNNYSIDE AVE,60630,-87.77708,41.96222
N AUSTIN AVE & W THORNDALE AVE,N AUSTIN AVE,W THORNDALE AVE,60646,-87.77793,41.98839
N AUSTIN AVE & W WABANSIA AVE,N AUSTIN AVE,W WABANSIA AVE,60639,-87.77528,41.91108
N AUSTIN AVE & W WARWICK AVE,N AUSTIN AVE,W WARWICK AVE,60634,-87.77661,41.9485
N AUSTIN AVE & W WAVELAND AVE,N AUSTIN AVE,W WAVELAND AVE,60634,-87.77657,41.94759
N AUSTIN AVE & W WELLINGTON AVE,N AUSTIN AVE,W WELLINGTON AVE,60634,-87.77609,41.93479
N AUSTIN AVE & W WILSON AVE,N AUSTIN AVE,W WILSON AVE,60630,-87.77714,41.964
N AUSTIN AVE & W WRIGHTWOOD AVE,N AUSTIN AVE,W WRIGHTWOOD AVE,60639,-87.77584,41.92748
N AUSTIN BLVD & W AUGUSTA BLVD,N AUSTIN BLVD,W AUGUSTA BLVD,60651,-87.77525,41.89836
N AUSTIN BLVD & W CHICAGO AVE,N AUSTIN BLVD,W CHICAGO AVE,60651,-87.77513,41.89471
N AUSTIN BLVD & W CORCORAN PL,N AUSTIN BLVD,W CORCORAN PL,60644,-87.77488,41.8871
N AUSTIN BLVD & W DIVISION ST,N AUSTIN BLVD,W DIVISION ST,60651,-87.77536,41.902
N AUSTIN BLVD & W ERIE ST,N AUSTIN BLVD,W ERIE ST,60644,-87.77504,41.89188
N AUSTIN BLVD & W FULTON ST,N AUSTIN BLVD,W FULTON ST,60644,-87.77483,41.88557
N AUSTIN BLVD & W HIRSCH ST,N AUSTIN BLVD,W HIRSCH ST,60651,-87.77548,41.90563
N AUSTIN BLVD & W HURON ST,N AUSTIN BLVD,W HURON ST,60644,-87.77507,41.89281
N AUSTIN BLVD & W IOWA ST,N AUSTIN BLVD,W IOWA ST,60651,-87.77519,41.89653
N AUSTIN BLVD & W LAKE ST,N AUSTIN BLVD,W LAKE ST,60644,-87.77491,41.88802
N AUSTIN BLVD & W LE MOYNE ST,N AUSTIN BLVD,W LE MOYNE ST,60651,-87.77554,41.90744
N AUSTIN BLVD & W MADISON ST,N AUSTIN BLVD,W MADISON ST,60644,-87.77466,41.88009
N AUSTIN BLVD & W MIDWAY PARK,N AUSTIN BLVD,W MIDWAY PARK,60644,-87.77494,41.88895
N AUSTIN BLVD & W OHIO ST,N AUSTIN BLVD,W OHIO ST,60644,-87.77501,41.891
N AUSTIN BLVD & W POTOMAC AVE,N AUSTIN BLVD,W POTOMAC AVE,60651,-87.77542,41.90381
N AUSTIN BLVD & W RACE AVE,N AUSTIN BLVD,W RACE AVE,60644,-87.77497,41.89002
N AUSTIN BLVD & W RICE ST,N AUSTIN BLVD,W RICE ST,60651,-87.77516,41.89562
N AUSTIN BLVD & W SUPERIOR ST,N AUSTIN BLVD,W SUPERIOR ST,60644,-87.7751,41.8938
N AUSTIN BLVD & W THOMAS ST,N AUSTIN BLVD,W THOMAS ST,60651,-87.7753,41.90017
N AUSTIN BLVD & W WALTON ST,N AUSTIN BLVD,W WALTON ST,60651,-87.77522,41.89745
N AUSTIN BLVD & W WASHINGTON BLVD,N AUSTIN BLVD,W WASHINGTON BLVD,60644,-87.77472,41.8821
N AUSTIN BLVD & W WEST END AVE,N AUSTIN BLVD,W WEST END AVE,60644,-87.77478,41.88405
N AVERS AVE & N ELSTON AVE,N AVERS AVE,N ELSTON AVE,60618,-87.72404,41.95703
N AVERS AVE & N PARKVIEW TER,N AVERS AVE,N PARKVIEW TER,60618,-87.72385,41.95041
N AVERS AVE & N ROGERS AVE,N AVERS AVE,N ROGERS AVE,60659,-87.72512,41.99253
N AVERS AVE & W ADDISON ST,N AVERS AVE,W ADDISON ST,60618,-87.72383,41.94642
N AVERS AVE & W AINSLIE ST,N AVERS AVE,W AINSLIE ST,60625,-87.72445,41.9701
N AVERS AVE & W ALTGELD ST,N AVERS AVE,W ALTGELD ST,60647,-87.72316,41.92637
N AVERS AVE & W ARGYLE ST,N AVERS AVE,W ARGYLE ST,60625,-87.7245,41.97193
N AVERS AVE & W ARMITAGE AVE,N AVERS AVE,W ARMITAGE AVE,60647,-87.72289,41.91721
N AVERS AVE & W AUGUSTA BLVD,N AVERS AVE,W AUGUSTA BLVD,60651,-87.72253,41.89905
N AVERS AVE & W BELDEN AVE,N AVERS AVE,W BELDEN AVE,60647,-87.72305,41.9227
N AVERS AVE & W BELLE PLAINE AVE,N AVERS AVE,W BELLE PLAINE AVE,60618,-87.724,41.95553
N AVERS AVE & W BELMONT AVE,N AVERS AVE,W BELMONT AVE,60618,-87.72352,41.93914
N AVERS AVE & W BERTEAU AVE,N AVERS AVE,W BERTEAU AVE,60618,-87.72405,41.95735
N AVERS AVE & W BYRON ST,N AVERS AVE,W BYRON ST,60618,-87.72389,41.95189
N AVERS AVE & W CARMEN AVE,N AVERS AVE,W CARMEN AVE,60625,-87.72455,41.97375
N AVERS AVE & W CHICAGO AVE,N AVERS AVE,W CHICAGO AVE,60651,-87.72241,41.8954
N AVERS AVE & W CORNELIA AVE,N AVERS AVE,W CORNELIA AVE,60618,-87.72368,41.9446
N AVERS AVE & W CULLOM AVE,N AVERS AVE,W CULLOM AVE,60618,-87.72411,41.95917
N AVERS AVE & W DEVON AVE,N AVERS AVE,W DEVON AVE,0,-87.72522,41.99725
N AVERS AVE & W DICKENS AVE,N AVERS AVE,W DICKENS AVE,60647,-87.72294,41.91904
N AVERS AVE & W DIVERSEY AVE,N AVERS AVE,W DIVERSEY AVE,60618,-87.7233,41.93184
N AVERS AVE & W DIVISION ST,N AVERS AVE,W DIVISION ST,60651,-87.72265,41.9027
N AVERS AVE & W FERDINAND ST,N AVERS AVE,W FERDINAND ST,60624,-87.72226,41.8899
N AVERS AVE & W FOSTER AVE,N AVERS AVE,W FOSTER AVE,60625,-87.7246,41.97557
N AVERS AVE & W FULLERTON AVE,N AVERS AVE,W FULLERTON AVE,60647,-87.7231,41.92453
N AVERS AVE & W FULTON ST,N AVERS AVE,W FULTON ST,60624,-87.72253,41.8868
N AVERS AVE & W GEORGE ST,N AVERS AVE,W GEORGE ST,60618,-87.72335,41.93366
N AVERS AVE & W GRAND AVE,N AVERS AVE,W GRAND AVE,60651,-87.72271,41.90469
N AVERS AVE & W GRANVILLE AVE,N AVERS AVE,W GRANVILLE AVE,60659,-87.72517,41.99371
N AVERS AVE & W HIRSCH ST,N AVERS AVE,W HIRSCH ST,60651,-87.72276,41.90631
N AVERS AVE & W HURON ST,N AVERS AVE,W HURON ST,60624,-87.72236,41.89357
N AVERS AVE & W IOWA ST,N AVERS AVE,W IOWA ST,60651,-87.72247,41.89723
N AVERS AVE & W IRVING PARK RD,N AVERS AVE,W IRVING PARK RD,60618,-87.72394,41.9537
N AVERS AVE & W LAKE ST,N AVERS AVE,W LAKE ST,60624,-87.72249,41.88529
N AVERS AVE & W LAWRENCE AVE,N AVERS AVE,W LAWRENCE AVE,60625,-87.72439,41.96828
N AVERS AVE & W LE MOYNE ST,N AVERS AVE,W LE MOYNE ST,60651,-87.72282,41.90811
N AVERS AVE & W LELAND AVE,N AVERS AVE,W LELAND AVE,60625,-87.72431,41.96646
N AVERS AVE & W MONTROSE AVE,N AVERS AVE,W MONTROSE AVE,60625,-87.72416,41.96099
N AVERS AVE & W NORTH AVE,N AVERS AVE,W NORTH AVE,60647,-87.72267,41.90993
N AVERS AVE & W OHIO ST,N AVERS AVE,W OHIO ST,60624,-87.72231,41.89173
N AVERS AVE & W PALMER ST,N AVERS AVE,W PALMER ST,60647,-87.723,41.92087
N AVERS AVE & W ROSCOE ST,N AVERS AVE,W ROSCOE ST,60618,-87.72363,41.94278
N AVERS AVE & W ROSEMONT AVE,N AVERS AVE,W ROSEMONT AVE,60659,-87.72519,41.99548
N AVERS AVE & W SCHOOL ST,N AVERS AVE,W SCHOOL ST,60618,-87.72357,41.94096
N AVERS AVE & W SCHUBERT AVE,N AVERS AVE,W SCHUBERT AVE,60647,-87.72326,41.93005
N AVERS AVE & W SUNNYSIDE AVE,N AVERS AVE,W SUNNYSIDE AVE,60625,-87.72421,41.96286
N AVERS AVE & W THOMAS ST,N AVERS AVE,W THOMAS ST,60651,-87.72259,41.90088
N AVERS AVE & W WABANSIA AVE,N AVERS AVE,W WABANSIA AVE,60647,-87.72274,41.91175
N AVERS AVE & W WAVELAND AVE,N AVERS AVE,W WAVELAND AVE,60618,-87.72388,41.94824
N AVERS AVE & W WELLINGTON AVE,N AVERS AVE,W WELLINGTON AVE,60618,-87.72341,41.93547
N AVERS AVE & W WILSON AVE,N AVERS AVE,W WILSON AVE,60625,-87.72426,41.96464
N AVERS AVE & W WRIGHTWOOD AVE,N AVERS AVE,W WRIGHTWOOD AVE,60647,-87.72321,41.92819
N AVONDALE AVE & N KEDZIE AVE,N AVONDALE AVE,N KEDZIE AVE,60618,-87.70764,41.9386
N AVONDALE AVE & N KIMBALL AVE,N AVONDALE AVE,N KIMBALL AVE,60618,-87.7126,41.94244
N AVONDALE AVE & N OGALLAH AVE,N AVONDALE AVE,N OGALLAH AVE,60631,-87.81407,41.9992
N AVONDALE AVE & N OLIPHANT AVE,N AVONDALE AVE,N OLIPHANT AVE,60631,-87.8177,42.00125
N AVONDALE AVE & N PULASKI RD,N AVONDALE AVE,N PULASKI RD,60641,-87.72753,41.95091
N AVONDALE AVE & N SAYRE AVE,N AVONDALE AVE,N SAYRE AVE,60631,-87.80322,41.99377
N AVONDALE AVE & W ADDISON ST,N AVONDALE AVE,W ADDISON ST,60618,-87.71977,41.94647
N AVONDALE AVE & W AINSLIE ST,N AVONDALE AVE,W AINSLIE ST,60630,-87.7597,41.96921
N AVONDALE AVE & W ALTGELD ST,N AVONDALE AVE,W ALTGELD ST,60647,-87.68643,41.92643
N AVONDALE AVE & W BALMORAL AVE,N AVONDALE AVE,W BALMORAL AVE,60630,-87.77944,41.97935
N AVONDALE AVE & W BERWYN AVE,N AVONDALE AVE,W BERWYN AVE,60630,-87.77614,41.97747
N AVONDALE AVE & W BRYN MAWR AVE,N AVONDALE AVE,W BRYN MAWR AVE,60646,-87.78405,41.98291
N AVONDALE AVE & W BYRON ST,N AVONDALE AVE,W BYRON ST,60641,-87.72914,41.95183
N AVONDALE AVE & W COLUMBIA AVE,N AVONDALE AVE,W COLUMBIA AVE,60631,-87.81921,42.00279
N AVONDALE AVE & W CORNELIA AVE,N AVONDALE AVE,W CORNELIA AVE,60618,-87.71818,41.94465
N AVONDALE AVE & W DEVON AVE,N AVONDALE AVE,W DEVON AVE,60631,-87.81035,41.99712
N AVONDALE AVE & W DICKENS AVE,N AVONDALE AVE,W DICKENS AVE,60614,-87.67427,41.91963
N AVONDALE AVE & W EDDY ST,N AVONDALE AVE,W EDDY ST,60618,-87.71855,41.94558
N AVONDALE AVE & W FOSTER AVE,N AVONDALE AVE,W FOSTER AVE,60630,-87.77334,41.97568
N AVONDALE AVE & W GEORGE ST,N AVONDALE AVE,W GEORGE ST,60618,-87.69971,41.9339
N AVONDALE AVE & W GREGORY ST,N AVONDALE AVE,W GREGORY ST,60630,-87.78347,41.98161
N AVONDALE AVE & W HIGHLAND AVE,N AVONDALE AVE,W HIGHLAND AVE,60631,-87.80896,41.9963
N AVONDALE AVE & W HOBART AVE,N AVONDALE AVE,W HOBART AVE,60631,-87.78951,41.986
N AVONDALE AVE & W HURLBUT ST,N AVONDALE AVE,W HURLBUT ST,60631,-87.7907,41.98668
N AVONDALE AVE & W IRVING PARK RD,N AVONDALE AVE,W IRVING PARK RD,60641,-87.73224,41.9536
N AVONDALE AVE & W ISHAM AVE,N AVONDALE AVE,W ISHAM AVE,60631,-87.81197,41.99801
N AVONDALE AVE & W LAWRENCE AVE,N AVONDALE AVE,W LAWRENCE AVE,60630,-87.75754,41.9679
N AVONDALE AVE & W LYNDALE ST,N AVONDALE AVE,W LYNDALE ST,60647,-87.67977,41.9227
N AVONDALE AVE & W MONTANA ST,N AVONDALE AVE,W MONTANA ST,60647,-87.68533,41.92569
N AVONDALE AVE & W NORTH SHORE AVE,N AVONDALE AVE,W NORTH SHORE AVE,60631,-87.81866,42.00181
N AVONDALE AVE & W PALATINE AVE,N AVONDALE AVE,W PALATINE AVE,60631,-87.80612,41.99539
N AVONDALE AVE & W RAVEN ST,N AVONDALE AVE,W RAVEN ST,60631,-87.79973,41.99179
N AVONDALE AVE & W SCHUBERT AVE,N AVONDALE AVE,W SCHUBERT AVE,60647,-87.69394,41.93029
N AVONDALE AVE & W SOMERSET AVE,N AVONDALE AVE,W SOMERSET AVE,60631,-87.7877,41.98498
N AVONDALE AVE & W THORNDALE AVE,N AVONDALE AVE,W THORNDALE AVE,60631,-87.79461,41.98889
N BAGGOT CT & W HIGHLAND AVE,N BAGGOT CT,W HIGHLAND AVE,60660,-87.67772,41.99667
N BEACON ST & W LAWRENCE AVE,N BEACON ST,W LAWRENCE AVE,60640,-87.66443,41.96895
N BEACON ST & W LELAND AVE,N BEACON ST,W LELAND AVE,60640,-87.66412,41.96713
N BEACON ST & W MONTROSE AVE,N BEACON ST,W MONTROSE AVE,60640,-87.66374,41.96166
N BEACON ST & W SUNNYSIDE AVE,N BEACON ST,W SUNNYSIDE AVE,60640,-87.66376,41.96349
N BEACON ST & W WILSON AVE,N BEACON ST,W WILSON AVE,60640,-87.66384,41.96531
N BEAUBIEN CT & E LAKE ST,N BEAUBIEN CT,E LAKE ST,60601,-87.62391,41.88577
N BEAUBIEN CT & E RANDOLPH ST,N BEAUBIEN CT,E RANDOLPH ST,60601,-87.6239,41.88444
N BELL AVE & N OAKLEY AVE,N BELL AVE,N OAKLEY AVE,60618,-87.68547,41.93258
N BELL AVE & W ADDISON ST,N BELL AVE,W ADDISON ST,60618,-87.68462,41.94678
N BELL AVE & W AINSLIE ST,N BELL AVE,W AINSLIE ST,60625,-87.68532,41.97049
N BELL AVE & W ARGYLE ST,N BELL AVE,W ARGYLE ST,60625,-87.68538,41.97231
N BELL AVE & W ARTHUR AVE,N BELL AVE,W ARTHUR AVE,60645,-87.68628,41.99961
N BELL AVE & W BELLE PLAINE AVE,N BELL AVE,W BELLE PLAINE AVE,60618,-87.68488,41.9559
N BELL AVE & W BERTEAU AVE,N BELL AVE,W BERTEAU AVE,60618,-87.68493,41.95772
N BELL AVE & W BERWYN AVE,N BELL AVE,W BERWYN AVE,60625,-87.68558,41.97776
N BELL AVE & W BYRON ST,N BELL AVE,W BYRON ST,60618,-87.68477,41.95225
N BELL AVE & W CHASE AVE,N BELL AVE,W CHASE AVE,60645,-87.68619,42.01406
N BELL AVE & W CORNELIA AVE,N BELL AVE,W CORNELIA AVE,60618,-87.68456,41.94496
N BELL AVE & W CULLOM AVE,N BELL AVE,W CULLOM AVE,60618,-87.68499,41.95954
N BELL AVE & W DEVON AVE,N BELL AVE,W DEVON AVE,60645,-87.68623,41.99779
N BELL AVE & W ESTES AVE,N BELL AVE,W ESTES AVE,60645,-87.68606,42.01111
N BELL AVE & W FARWELL AVE,N BELL AVE,W FARWELL AVE,60645,-87.68593,42.00633
N BELL AVE & W FULTON ST,N BELL AVE,W FULTON ST,60612,-87.68291,41.88668
N BELL AVE & W GRACE ST,N BELL AVE,W GRACE ST,60618,-87.68472,41.95043
N BELL AVE & W GRANVILLE AVE,N BELL AVE,W GRANVILLE AVE,60659,-87.68608,41.99416
N BELL AVE & W GREENLEAF AVE,N BELL AVE,W GREENLEAF AVE,60645,-87.68604,42.01
N BELL AVE & W HIGHLAND AVE,N BELL AVE,W HIGHLAND AVE,60659,-87.68619,41.99688
N BELL AVE & W HIRSCH ST,N BELL AVE,W HIRSCH ST,60622,-87.68347,41.90673
N BELL AVE & W HOWARD ST,N BELL AVE,W HOWARD ST,0,-87.68651,42.01951
N BELL AVE & W IRVING PARK RD,N BELL AVE,W IRVING PARK RD,60618,-87.68483,41.95407
N BELL AVE & W JARVIS AVE,N BELL AVE,W JARVIS AVE,60645,-87.68618,42.01559
N BELL AVE & W LAKE ST,N BELL AVE,W LAKE ST,60612,-87.68277,41.88476
N BELL AVE & W LAWRENCE AVE,N BELL AVE,W LAWRENCE AVE,60625,-87.68526,41.96867
N BELL AVE & W LE MOYNE ST,N BELL AVE,W LE MOYNE ST,60622,-87.68351,41.90855
N BELL AVE & W LUNT AVE,N BELL AVE,W LUNT AVE,60645,-87.68603,42.00878
N BELL AVE & W MAYPOLE AVE,N BELL AVE,W MAYPOLE AVE,60612,-87.68275,41.88392
N BELL AVE & W MONTROSE AVE,N BELL AVE,W MONTROSE AVE,60618,-87.68504,41.96136
N BELL AVE & W MORSE AVE,N BELL AVE,W MORSE AVE,60645,-87.68598,42.00724
N BELL AVE & W NORTH AVE,N BELL AVE,W NORTH AVE,60647,-87.68356,41.91038
N BELL AVE & W PALMER ST,N BELL AVE,W PALMER ST,60647,-87.68369,41.92191
N BELL AVE & W POTOMAC AVE,N BELL AVE,W POTOMAC AVE,60622,-87.68341,41.9049
N BELL AVE & W PRATT BLVD,N BELL AVE,W PRATT BLVD,60645,-87.68591,42.0051
N BELL AVE & W ROSCOE ST,N BELL AVE,W ROSCOE ST,60618,-87.68451,41.94314
N BELL AVE & W ROSEMONT AVE,N BELL AVE,W ROSEMONT AVE,60659,-87.68616,41.99598
N BELL AVE & W SCHOOL ST,N BELL AVE,W SCHOOL ST,60618,-87.68446,41.94132
N BELL AVE & W SHAKESPEARE AVE,N BELL AVE,W SHAKESPEARE AVE,60647,-87.68365,41.92068
N BELL AVE & W THOME AVE,N BELL AVE,W THOME AVE,60659,-87.68612,41.99506
N BELL AVE & W TOUHY AVE,N BELL AVE,W TOUHY AVE,60645,-87.68621,42.01224
N BELL AVE & W WAVELAND AVE,N BELL AVE,W WAVELAND AVE,60618,-87.68467,41.94861
N BELL AVE & W WOLFRAM ST,N BELL AVE,W WOLFRAM ST,60618,-87.68451,41.93294
N BERNARD ST & W ADDISON ST,N BERNARD ST,W ADDISON ST,60618,-87.71394,41.94655
N BERNARD ST & W AINSLIE ST,N BERNARD ST,W AINSLIE ST,60625,-87.71464,41.97021
N BERNARD ST & W ALTGELD ST,N BERNARD ST,W ALTGELD ST,60647,-87.71337,41.92646
N BERNARD ST & W ARDMORE AVE,N BERNARD ST,W ARDMORE AVE,60659,-87.71509,41.98663
N BERNARD ST & W BALMORAL AVE,N BERNARD ST,W BALMORAL AVE,60625,-87.71485,41.97934
N BERNARD ST & W BARRY AVE,N BERNARD ST,W BARRY AVE,60618,-87.71365,41.93745
N BERNARD ST & W BELLE PLAINE AVE,N BERNARD ST,W BELLE PLAINE AVE,60618,-87.71419,41.95566
N BERNARD ST & W BELMONT AVE,N BERNARD ST,W BELMONT AVE,60618,-87.71371,41.93926
N BERNARD ST & W BERTEAU AVE,N BERNARD ST,W BERTEAU AVE,60618,-87.71425,41.95748
N BERNARD ST & W BERWYN AVE,N BERNARD ST,W BERWYN AVE,60625,-87.7148,41.97751
N BERNARD ST & W BRYN MAWR AVE,N BERNARD ST,W BRYN MAWR AVE,60659,-87.71496,41.98299
N BERNARD ST & W BYRON ST,N BERNARD ST,W BYRON ST,60618,-87.71406,41.95202
N BERNARD ST & W CARMEN AVE,N BERNARD ST,W CARMEN AVE,60625,-87.7147,41.97256
N BERNARD ST & W CATALPA AVE,N BERNARD ST,W CATALPA AVE,60625,-87.7149,41.98118
N BERNARD ST & W CULLOM AVE,N BERNARD ST,W CULLOM AVE,60618,-87.71431,41.9593
N BERNARD ST & W FOSTER AVE,N BERNARD ST,W FOSTER AVE,60625,-87.71478,41.97568
N BERNARD ST & W FULLERTON AVE,N BERNARD ST,W FULLERTON AVE,60647,-87.71333,41.92465
N BERNARD ST & W GLENLAKE AVE,N BERNARD ST,W GLENLAKE AVE,60659,-87.71526,41.99203
N BERNARD ST & W GRACE ST,N BERNARD ST,W GRACE ST,60618,-87.71403,41.9502
N BERNARD ST & W GRANVILLE AVE,N BERNARD ST,W GRANVILLE AVE,60659,-87.71531,41.99379
N BERNARD ST & W HOLLYWOOD AVE,N BERNARD ST,W HOLLYWOOD AVE,60659,-87.71503,41.98481
N BERNARD ST & W IRVING PARK RD,N BERNARD ST,W IRVING PARK RD,60618,-87.71412,41.95384
N BERNARD ST & W LAWRENCE AVE,N BERNARD ST,W LAWRENCE AVE,60625,-87.71459,41.96839
N BERNARD ST & W LELAND AVE,N BERNARD ST,W LELAND AVE,60625,-87.71454,41.96657
N BERNARD ST & W MONTROSE AVE,N BERNARD ST,W MONTROSE AVE,60625,-87.71436,41.96111
N BERNARD ST & W PETERSON AVE,N BERNARD ST,W PETERSON AVE,60659,-87.7152,41.99031
N BERNARD ST & W SUNNYSIDE AVE,N BERNARD ST,W SUNNYSIDE AVE,60625,-87.71442,41.96294
N BERNARD ST & W THORNDALE AVE,N BERNARD ST,W THORNDALE AVE,60659,-87.71514,41.98844
N BERNARD ST & W WAVELAND AVE,N BERNARD ST,W WAVELAND AVE,60618,-87.71399,41.94838
N BERNARD ST & W WILSON AVE,N BERNARD ST,W WILSON AVE,60625,-87.71447,41.96475
N BERNARD ST & W WRIGHTWOOD AVE,N BERNARD ST,W WRIGHTWOOD AVE,60647,-87.71342,41.9283
N BESLY CT & W CORTLAND ST,N BESLY CT,W CORTLAND ST,60642,-87.66697,41.91631
N BESLY CT & W NORTH AVE,N BESLY CT,W NORTH AVE,60642,-87.66305,41.9107
N BESLY CT & W WABANSIA AVE,N BESLY CT,W WABANSIA AVE,60642,-87.66447,41.91279
N BINGHAM ST & W ARMITAGE AVE,N BINGHAM ST,W ARMITAGE AVE,60647,-87.69043,41.91755
N BINGHAM ST & W FRANCIS PL,N BINGHAM ST,W FRANCIS PL,60647,-87.69384,41.91971
N BISHOP ST & W CHICAGO AVE,N BISHOP ST,W CHICAGO AVE,60642,-87.66358,41.89613
N BISHOP ST & W ERIE ST,N BISHOP ST,W ERIE ST,60642,-87.66396,41.89339
N BISHOP ST & W FRY ST,N BISHOP ST,W FRY ST,60642,-87.66362,41.89703
N BISHOP ST & W GRAND AVE,N BISHOP ST,W GRAND AVE,60642,-87.66389,41.89101
N BISHOP ST & W HUBBARD ST,N BISHOP ST,W HUBBARD ST,60642,-87.66323,41.88994
N BISHOP ST & W HURON ST,N BISHOP ST,W HURON ST,60642,-87.66398,41.89431
N BISHOP ST & W MADISON ST,N BISHOP ST,W MADISON ST,60607,-87.66369,41.8815
N BISHOP ST & W OHIO ST,N BISHOP ST,W OHIO ST,60642,-87.66392,41.89218
N BISHOP ST & W SUPERIOR ST,N BISHOP ST,W SUPERIOR ST,60642,-87.66401,41.89521
N BISHOP ST & W WASHINGTON BLVD,N BISHOP ST,W WASHINGTON BLVD,60607,-87.66373,41.88288
N BISSELL ST & N DAYTON ST,N BISSELL ST,N DAYTON ST,60614,-87.64952,41.91197
N BISSELL ST & N FREMONT ST,N BISSELL ST,N FREMONT ST,60614,-87.65077,41.91287
N BISSELL ST & W ARMITAGE AVE,N BISSELL ST,W ARMITAGE AVE,60614,-87.65215,41.91812
N BISSELL ST & W BELDEN AVE,N BISSELL ST,W BELDEN AVE,60614,-87.65234,41.92358
N BISSELL ST & W DICKENS AVE,N BISSELL ST,W DICKENS AVE,60614,-87.65221,41.91994
N BISSELL ST & W WEBSTER AVE,N BISSELL ST,W WEBSTER AVE,60614,-87.65228,41.92176
N BISSELL ST & W WILLOW ST,N BISSELL ST,W WILLOW ST,60614,-87.65197,41.91377
N BISSELL ST & W WISCONSIN ST,N BISSELL ST,W WISCONSIN ST,60614,-87.65207,41.91598
N BOSWORTH AVE & N CLYBOURN AVE,N BOSWORTH AVE,N CLYBOURN AVE,60614,-87.66729,41.92369
N BOSWORTH AVE & W ADDISON ST,N BOSWORTH AVE,W ADDISON ST,60613,-87.66765,41.94701
N BOSWORTH AVE & W ALBION AVE,N BOSWORTH AVE,W ALBION AVE,60626,-87.66928,42.00174
N BOSWORTH AVE & W ALTGELD ST,N BOSWORTH AVE,W ALTGELD ST,60614,-87.667,41.92698
N BOSWORTH AVE & W ARTHUR AVE,N BOSWORTH AVE,W ARTHUR AVE,60626,-87.66922,41.99992
N BOSWORTH AVE & W BLACKHAWK ST,N BOSWORTH AVE,W BLACKHAWK ST,60642,-87.66632,41.90701
N BOSWORTH AVE & W CORNELIA AVE,N BOSWORTH AVE,W CORNELIA AVE,60657,-87.6676,41.94518
N BOSWORTH AVE & W DEVON AVE,N BOSWORTH AVE,W DEVON AVE,60660,-87.66917,41.99809
N BOSWORTH AVE & W DIVERSEY PKWY,N BOSWORTH AVE,W DIVERSEY PKWY,60614,-87.66719,41.93242
N BOSWORTH AVE & W DIVISION ST,N BOSWORTH AVE,W DIVISION ST,60642,-87.66615,41.90336
N BOSWORTH AVE & W FULLERTON AVE,N BOSWORTH AVE,W FULLERTON AVE,60614,-87.66699,41.92517
N BOSWORTH AVE & W GRACE ST,N BOSWORTH AVE,W GRACE ST,60613,-87.66774,41.95066
N BOSWORTH AVE & W HOWARD ST,N BOSWORTH AVE,W HOWARD ST,60626,-87.6695,42.01936
N BOSWORTH AVE & W JONQUIL TER,N BOSWORTH AVE,W JONQUIL TER,60626,-87.66948,42.02114
N BOSWORTH AVE & W LE MOYNE ST,N BOSWORTH AVE,W LE MOYNE ST,60642,-87.66642,41.90883
N BOSWORTH AVE & W NORTH AVE,N BOSWORTH AVE,W NORTH AVE,60642,-87.6665,41.91065
N BOSWORTH AVE & W NORTH SHORE AVE,N BOSWORTH AVE,W NORTH SHORE AVE,60626,-87.66933,42.00357
N BOSWORTH AVE & W PRATT BLVD,N BOSWORTH AVE,W PRATT BLVD,60626,-87.66938,42.00539
N BOSWORTH AVE & W ROSCOE ST,N BOSWORTH AVE,W ROSCOE ST,60657,-87.66755,41.94336
N BOSWORTH AVE & W SCHREIBER AVE,N BOSWORTH AVE,W SCHREIBER AVE,60626,-87.6692,41.99899
N BOSWORTH AVE & W WABANSIA AVE,N BOSWORTH AVE,W WABANSIA AVE,60642,-87.66684,41.91245
N BOSWORTH AVE & W WAVELAND AVE,N BOSWORTH AVE,W WAVELAND AVE,60613,-87.66769,41.94883
N BOSWORTH AVE & W WRIGHTWOOD AVE,N BOSWORTH AVE,W WRIGHTWOOD AVE,60614,-87.66706,41.9288
N BOWMANVILLE AVE & N DAMEN AVE,N BOWMANVILLE AVE,N DAMEN AVE,60625,-87.67954,41.98193
N BOWMANVILLE AVE & W BALMORAL AVE,N BOWMANVILLE AVE,W BALMORAL AVE,60625,-87.68422,41.9796
N BOWMANVILLE AVE & W BERWYN AVE,N BOWMANVILLE AVE,W BERWYN AVE,60625,-87.68845,41.97772
N BREAKWATER ACCESS & E RANDOLPH ST,N BREAKWATER ACCESS,E RANDOLPH ST,60601,-87.61008,41.88411
N BROADWAY & N CLARENDON AVE,N BROADWAY,N CLARENDON AVE,60613,-87.64967,41.95319
N BROADWAY & N CLARK ST,N BROADWAY,N CLARK ST,60657,-87.64489,41.9328
N BROADWAY & N CLIFTON AVE,N BROADWAY,N CLIFTON AVE,60640,-87.65901,41.96779
N BROADWAY & N RACINE AVE,N BROADWAY,N RACINE AVE,60640,-87.65937,41.96836
N BROADWAY & N SHERIDAN RD,N BROADWAY,N SHERIDAN RD,60613,-87.65473,41.96113
N BROADWAY & W ADDISON ST,N BROADWAY,W ADDISON ST,60613,-87.64728,41.94735
N BROADWAY & W AINSLIE ST,N BROADWAY,W AINSLIE ST,60640,-87.65974,41.97146
N BROADWAY & W ALDINE AVE,N BROADWAY,W ALDINE AVE,60657,-87.64447,41.94223
N BROADWAY & W ARDMORE AVE,N BROADWAY,W ARDMORE AVE,60660,-87.66018,41.98727
N BROADWAY & W ARGYLE ST,N BROADWAY,W ARGYLE ST,60640,-87.65977,41.97268
N BROADWAY & W BALMORAL AVE,N BROADWAY,W BALMORAL AVE,60640,-87.65997,41.97997
N BROADWAY & W BARRY AVE,N BROADWAY,W BARRY AVE,60657,-87.64433,41.9379
N BROADWAY & W BELLE PLAINE AVE,N BROADWAY,W BELLE PLAINE AVE,60613,-87.6521,41.95699
N BROADWAY & W BELMONT AVE,N BROADWAY,W BELMONT AVE,60657,-87.6444,41.94004
N BROADWAY & W BERWYN AVE,N BROADWAY,W BERWYN AVE,60640,-87.65992,41.97814
N BROADWAY & W BRADLEY PL,N BROADWAY,W BRADLEY PL,60613,-87.64877,41.94981
N BROADWAY & W BRIAR PL,N BROADWAY,W BRIAR PL,60657,-87.64437,41.93915
N BROADWAY & W BROMPTON AVE,N BROADWAY,W BROMPTON AVE,60657,-87.64682,41.9466
N BROADWAY & W BRYN MAWR AVE,N BROADWAY,W BRYN MAWR AVE,60660,-87.66007,41.98362
N BROADWAY & W BUCKINGHAM PL,N BROADWAY,W BUCKINGHAM PL,60657,-87.64451,41.94278
N BROADWAY & W BUENA AVE,N BROADWAY,W BUENA AVE,60613,-87.65303,41.95845
N BROADWAY & W CARMEN AVE,N BROADWAY,W CARMEN AVE,60640,-87.65982,41.97462
N BROADWAY & W CATALPA AVE,N BROADWAY,W CATALPA AVE,60640,-87.66002,41.9818
N BROADWAY & W CORNELIA AVE,N BROADWAY,W CORNELIA AVE,60657,-87.64615,41.9455
N BROADWAY & W CULLOM AVE,N BROADWAY,W CULLOM AVE,60613,-87.65407,41.96008
N BROADWAY & W CUYLER AVE,N BROADWAY,W CUYLER AVE,60613,-87.65122,41.95562
N BROADWAY & W DAKIN ST,N BROADWAY,W DAKIN ST,60613,-87.65006,41.95384
N BROADWAY & W DIVERSEY PKWY,N BROADWAY,W DIVERSEY PKWY,60657,-87.64489,41.9328
N BROADWAY & W EARLY AVE,N BROADWAY,W EARLY AVE,60660,-87.66013,41.98575
N BROADWAY & W ELMDALE AVE,N BROADWAY,W ELMDALE AVE,60660,-87.66029,41.99092
N BROADWAY & W FOSTER AVE,N BROADWAY,W FOSTER AVE,60640,-87.65987,41.97632
N BROADWAY & W GLENLAKE AVE,N BROADWAY,W GLENLAKE AVE,60660,-87.66035,41.99273
N BROADWAY & W GORDON TER,N BROADWAY,W GORDON TER,60613,-87.65256,41.95772
N BROADWAY & W GRACE ST,N BROADWAY,W GRACE ST,60613,-87.64962,41.9512
N BROADWAY & W GRANVILLE AVE,N BROADWAY,W GRANVILLE AVE,60660,-87.66041,41.99455
N BROADWAY & W GUNNISON ST,N BROADWAY,W GUNNISON ST,60640,-87.6597,41.97024
N BROADWAY & W HAWTHORNE PL,N BROADWAY,W HAWTHORNE PL,60657,-87.64531,41.94414
N BROADWAY & W HOLLYWOOD AVE,N BROADWAY,W HOLLYWOOD AVE,60660,-87.66013,41.98546
N BROADWAY & W HOOD AVE,N BROADWAY,W HOOD AVE,60660,-87.66038,41.99363
N BROADWAY & W IRVING PARK RD,N BROADWAY,W IRVING PARK RD,60613,-87.65053,41.95455
N BROADWAY & W LAWRENCE AVE,N BROADWAY,W LAWRENCE AVE,60640,-87.65967,41.96903
N BROADWAY & W LELAND AVE,N BROADWAY,W LELAND AVE,60640,-87.65863,41.96721
N BROADWAY & W MELROSE ST,N BROADWAY,W MELROSE ST,60657,-87.64443,41.94113
N BROADWAY & W MONTROSE AVE,N BROADWAY,W MONTROSE AVE,60640,-87.65514,41.96177
N BROADWAY & W NORWOOD ST,N BROADWAY,W NORWOOD ST,60660,-87.66032,41.99182
N BROADWAY & W OAKDALE AVE,N BROADWAY,W OAKDALE AVE,60657,-87.64425,41.93559
N BROADWAY & W PATTERSON AVE,N BROADWAY,W PATTERSON AVE,60613,-87.64785,41.9483
N BROADWAY & W ROSCOE ST,N BROADWAY,W ROSCOE ST,60657,-87.64504,41.94368
N BROADWAY & W ROSEDALE AVE,N BROADWAY,W ROSEDALE AVE,60660,-87.66024,41.98906
N BROADWAY & W ROSEMONT AVE,N BROADWAY,W ROSEMONT AVE,60660,-87.66046,41.99637
N BROADWAY & W SHERIDAN RD,N BROADWAY,W SHERIDAN RD,60613,-87.64965,41.95275
N BROADWAY & W STRATFORD PL,N BROADWAY,W STRATFORD PL,60657,-87.64574,41.94484
N BROADWAY & W SUNNYSIDE AVE,N BROADWAY,W SUNNYSIDE AVE,60640,-87.65631,41.96357
N BROADWAY & W SURF ST,N BROADWAY,W SURF ST,60657,-87.64422,41.93488
N BROADWAY & W THORNDALE AVE,N BROADWAY,W THORNDALE AVE,60660,-87.66027,41.99
N BROADWAY & W VICTORIA ST,N BROADWAY,W VICTORIA ST,60660,-87.66017,41.98695
N BROADWAY & W WAVELAND AVE,N BROADWAY,W WAVELAND AVE,60613,-87.64837,41.94917
N BROADWAY & W WELLINGTON AVE,N BROADWAY,W WELLINGTON AVE,60657,-87.64428,41.93651
N BROADWAY & W WILSON AVE,N BROADWAY,W WILSON AVE,60640,-87.65747,41.9654
N BROADWAY & W WINNEMAC AVE,N BROADWAY,W WINNEMAC AVE,60640,-87.65979,41.97364
N BROADWAY & W WINONA ST,N BROADWAY,W WINONA ST,60640,-87.65984,41.97543
N BRYN MAWR AV LSD ER & N LAKE SHORE DR,N BRYN MAWR AV LSD ER,N LAKE SHORE DR,60640,-87.65282,41.98152
N BRYN MAWR AV LSD ER & W BRYN MAWR AVE,N BRYN MAWR AV LSD ER,W BRYN MAWR AVE,60660,-87.6537,41.98386
N BURLING ST & W ARMITAGE AVE,N BURLING ST,W ARMITAGE AVE,60614,-87.64731,41.91819
N BURLING ST & W BELDEN AVE,N BURLING ST,W BELDEN AVE,60614,-87.64748,41.92365
N BURLING ST & W CONCORD PL,N BURLING ST,W CONCORD PL,60614,-87.64707,41.9114
N BURLING ST & W DICKENS AVE,N BURLING ST,W DICKENS AVE,60614,-87.64739,41.91999
N BURLING ST & W DIVERSEY PKWY,N BURLING ST,W DIVERSEY PKWY,60657,-87.64767,41.93275
N BURLING ST & W DIVISION ST,N BURLING ST,W DIVISION ST,60610,-87.64775,41.90364
N BURLING ST & W EASTMAN ST,N BURLING ST,W EASTMAN ST,60610,-87.64735,41.90675
N BURLING ST & W EVERGREEN AVE,N BURLING ST,W EVERGREEN AVE,60610,-87.64734,41.90639
N BURLING ST & W FAIR PL,N BURLING ST,W FAIR PL,60610,-87.64733,41.90599
N BURLING ST & W FULLERTON AVE,N BURLING ST,W FULLERTON AVE,60614,-87.64754,41.92547
N BURLING ST & W OAKDALE AVE,N BURLING ST,W OAKDALE AVE,60657,-87.64814,41.93559
N BURLING ST & W SCHUBERT AVE,N BURLING ST,W SCHUBERT AVE,60614,-87.64775,41.93157
N BURLING ST & W SCOTT ST,N BURLING ST,W SCOTT ST,60610,-87.6473,41.90498
N BURLING ST & W WEBSTER AVE,N BURLING ST,W WEBSTER AVE,60614,-87.64743,41.92183
N BURLING ST & W WILLOW ST,N BURLING ST,W WILLOW ST,60614,-87.64716,41.91385
N BURLING ST & W WRIGHTWOOD AVE,N BURLING ST,W WRIGHTWOOD AVE,60614,-87.64766,41.92909
N BUSSE AVE & W ARGYLE ST,N BUSSE AVE,W ARGYLE ST,60656,-87.79572,41.97197
N BUSSE AVE & W WINNEMAC AVE,N BUSSE AVE,W WINNEMAC AVE,60656,-87.79571,41.97283
N CALDWELL AVE & N CENTRAL AVE,N CALDWELL AVE,N CENTRAL AVE,60646,-87.76421,41.99614
N CALDWELL AVE & N CHICORA AVE,N CALDWELL AVE,N CHICORA AVE,60646,-87.77174,41.99965
N CALDWELL AVE & N CICERO AVE,N CALDWELL AVE,N CICERO AVE,60646,-87.74832,41.98876
N CALDWELL AVE & N EDENS CALDWELL ER,N CALDWELL AVE,N EDENS CALDWELL ER,60646,-87.75188,41.99051
N CALDWELL AVE & N FOREST GLEN AVE,N CALDWELL AVE,N FOREST GLEN AVE,60646,-87.7449,41.98715
N CALDWELL AVE & N JEAN AVE,N CALDWELL AVE,N JEAN AVE,60646,-87.77863,42.00286
N CALDWELL AVE & N KEATING AVE,N CALDWELL AVE,N KEATING AVE,60646,-87.7471,41.98819
N CALDWELL AVE & N KENTON AVE,N CALDWELL AVE,N KENTON AVE,60646,-87.74313,41.98633
N CALDWELL AVE & N KEOTA AVE,N CALDWELL AVE,N KEOTA AVE,60646,-87.77278,42.00013
N CALDWELL AVE & N KILPATRICK AVE,N CALDWELL AVE,N KILPATRICK AVE,60646,-87.74604,41.98769
N CALDWELL AVE & N KOLMAR AVE,N CALDWELL AVE,N KOLMAR AVE,60646,-87.74191,41.98575
N CALDWELL AVE & N LANDERS AVE,N CALDWELL AVE,N LANDERS AVE,60646,-87.75314,41.99097
N CALDWELL AVE & N LE MAI AVE,N CALDWELL AVE,N LE MAI AVE,60646,-87.75933,41.99386
N CALDWELL AVE & N LEADER AVE,N CALDWELL AVE,N LEADER AVE,60646,-87.75417,41.99145
N CALDWELL AVE & N LEGETT AVE,N CALDWELL AVE,N LEGETT AVE,60646,-87.75522,41.99194
N CALDWELL AVE & N LEHIGH AVE,N CALDWELL AVE,N LEHIGH AVE,60646,-87.76543,41.99671
N CALDWELL AVE & N LENOX AVE,N CALDWELL AVE,N LENOX AVE,60646,-87.75624,41.99241
N CALDWELL AVE & N LEONA AVE,N CALDWELL AVE,N LEONA AVE,60646,-87.75727,41.9929
N CALDWELL AVE & N LEROY AVE,N CALDWELL AVE,N LEROY AVE,60646,-87.75831,41.99338
N CALDWELL AVE & N LIGHTFOOT AVE,N CALDWELL AVE,N LIGHTFOOT AVE,60646,-87.77588,42.00157
N CALDWELL AVE & N LOLETA AVE,N CALDWELL AVE,N LOLETA AVE,60646,-87.77381,42.00061
N CALDWELL AVE & N LORON AVE,N CALDWELL AVE,N LORON AVE,60646,-87.77485,42.00109
N CALDWELL AVE & N MCALPIN AVE,N CALDWELL AVE,N MCALPIN AVE,60646,-87.78468,42.00726
N CALDWELL AVE & N MENDOTA AVE,N CALDWELL AVE,N MENDOTA AVE,60646,-87.78245,42.00482
N CALDWELL AVE & N MINNEHAHA AVE,N CALDWELL AVE,N MINNEHAHA AVE,60646,-87.76347,41.99579
N CALDWELL AVE & N MINNETONKA AVE,N CALDWELL AVE,N MINNETONKA AVE,60646,-87.76865,41.9982
N CALDWELL AVE & N MOSELLE AVE,N CALDWELL AVE,N MOSELLE AVE,60646,-87.78321,42.00554
N CALDWELL AVE & N NAVAJO AVE,N CALDWELL AVE,N NAVAJO AVE,60646,-87.76037,41.99434
N CALDWELL AVE & N NOKOMIS AVE,N CALDWELL AVE,N NOKOMIS AVE,60646,-87.76141,41.99483
N CALDWELL AVE & N PONCHARTRAIN BLVD,N CALDWELL AVE,N PONCHARTRAIN BLVD,60646,-87.77071,41.99916
N CALDWELL AVE & N ROGERS AVE,N CALDWELL AVE,N ROGERS AVE,60646,-87.74078,41.98523
N CALDWELL AVE & N SPOKANE AVE,N CALDWELL AVE,N SPOKANE AVE,60646,-87.76244,41.99531
N CALDWELL AVE & N TONTY AVE,N CALDWELL AVE,N TONTY AVE,60646,-87.78136,42.00413
N CALDWELL AVE & N WAUKESHA AVE,N CALDWELL AVE,N WAUKESHA AVE,60646,-87.76967,41.99868
N CALDWELL AVE & N WILDWOOD AVE,N CALDWELL AVE,N WILDWOOD AVE,60646,-87.78002,42.00351
N CALDWELL AVE & W DEVON AVE,N CALDWELL AVE,W DEVON AVE,60646,-87.76669,41.9973
N CALDWELL AVE & W ESTES AVE,N CALDWELL AVE,W ESTES AVE,60646,-87.78708,42.01008
N CALDWELL AVE & W GREENLEAF AVE,N CALDWELL AVE,W GREENLEAF AVE,60646,-87.78616,42.009
N CALDWELL AVE & W PETERSON AVE,N CALDWELL AVE,W PETERSON AVE,60646,-87.75112,41.99029
N CALIFORNIA AVE & N ELSTON AVE,N CALIFORNIA AVE,N ELSTON AVE,60618,-87.69781,41.93904
N CALIFORNIA AVE & N KENNEDY CALIFORNIA AV ER,N CALIFORNIA AVE,N KENNEDY CALIFORNIA AV ER,60618,-87.69767,41.93395
N CALIFORNIA AVE & N KENNEDY CALIFORNIA AV XR,N CALIFORNIA AVE,N KENNEDY CALIFORNIA AV XR,60618,-87.69763,41.93264
N CALIFORNIA AVE & N LINCOLN AVE,N CALIFORNIA AVE,N LINCOLN AVE,60659,-87.69924,41.98554
N CALIFORNIA AVE & N MILWAUKEE AVE,N CALIFORNIA AVE,N MILWAUKEE AVE,60647,-87.69736,41.92291
N CALIFORNIA AVE & W ADDISON ST,N CALIFORNIA AVE,W ADDISON ST,60618,-87.69803,41.94668
N CALIFORNIA AVE & W AINSLIE ST,N CALIFORNIA AVE,W AINSLIE ST,60625,-87.69876,41.97072
N CALIFORNIA AVE & W ALBION AVE,N CALIFORNIA AVE,W ALBION AVE,60645,-87.69974,42.0012
N CALIFORNIA AVE & W ALTGELD ST,N CALIFORNIA AVE,W ALTGELD ST,60647,-87.69746,41.92663
N CALIFORNIA AVE & W ARDMORE AVE,N CALIFORNIA AVE,W ARDMORE AVE,60659,-87.69928,41.98676
N CALIFORNIA AVE & W ARGYLE ST,N CALIFORNIA AVE,W ARGYLE ST,60625,-87.69881,41.97218
N CALIFORNIA AVE & W ARMITAGE AVE,N CALIFORNIA AVE,W ARMITAGE AVE,60647,-87.6972,41.91749
N CALIFORNIA AVE & W ARTHUR AVE,N CALIFORNIA AVE,W ARTHUR AVE,60645,-87.6997,41.99939
N CALIFORNIA AVE & W AUGUSTA BLVD,N CALIFORNIA AVE,W AUGUSTA BLVD,60622,-87.69679,41.89928
N CALIFORNIA AVE & W BALMORAL AVE,N CALIFORNIA AVE,W BALMORAL AVE,60625,-87.69904,41.97947
N CALIFORNIA AVE & W BARRY AVE,N CALIFORNIA AVE,W BARRY AVE,60618,-87.69777,41.93757
N CALIFORNIA AVE & W BELLE PLAINE AVE,N CALIFORNIA AVE,W BELLE PLAINE AVE,60618,-87.69829,41.95579
N CALIFORNIA AVE & W BELMONT AVE,N CALIFORNIA AVE,W BELMONT AVE,60618,-87.69782,41.93939
N CALIFORNIA AVE & W BERTEAU AVE,N CALIFORNIA AVE,W BERTEAU AVE,60618,-87.69835,41.9576
N CALIFORNIA AVE & W BERWYN AVE,N CALIFORNIA AVE,W BERWYN AVE,60625,-87.69898,41.97764
N CALIFORNIA AVE & W BIRCHWOOD AVE,N CALIFORNIA AVE,W BIRCHWOOD AVE,60645,-87.69962,42.01751
N CALIFORNIA AVE & W BLOOMINGDALE AVE,N CALIFORNIA AVE,W BLOOMINGDALE AVE,60647,-87.6971,41.914
N CALIFORNIA AVE & W BRYN MAWR AVE,N CALIFORNIA AVE,W BRYN MAWR AVE,60659,-87.69916,41.98312
N CALIFORNIA AVE & W BYRON ST,N CALIFORNIA AVE,W BYRON ST,60618,-87.69819,41.95215
N CALIFORNIA AVE & W CARMEN AVE,N CALIFORNIA AVE,W CARMEN AVE,60625,-87.69887,41.974
N CALIFORNIA AVE & W CATALPA AVE,N CALIFORNIA AVE,W CATALPA AVE,60625,-87.6991,41.9813
N CALIFORNIA AVE & W CHASE AVE,N CALIFORNIA AVE,W CHASE AVE,60645,-87.69969,42.01388
N CALIFORNIA AVE & W CHICAGO AVE,N CALIFORNIA AVE,W CHICAGO AVE,60622,-87.6967,41.89565
N CALIFORNIA AVE & W CORTEZ ST,N CALIFORNIA AVE,W CORTEZ ST,60622,-87.69682,41.9005
N CALIFORNIA AVE & W CORTLAND ST,N CALIFORNIA AVE,W CORTLAND ST,60647,-87.69715,41.91567
N CALIFORNIA AVE & W COYLE AVE,N CALIFORNIA AVE,W COYLE AVE,60645,-87.69979,42.00756
N CALIFORNIA AVE & W CRYSTAL ST,N CALIFORNIA AVE,W CRYSTAL ST,60622,-87.6969,41.90387
N CALIFORNIA AVE & W CULLOM AVE,N CALIFORNIA AVE,W CULLOM AVE,60618,-87.69841,41.95941
N CALIFORNIA AVE & W DEVON AVE,N CALIFORNIA AVE,W DEVON AVE,60645,-87.69964,41.99756
N CALIFORNIA AVE & W DICKENS AVE,N CALIFORNIA AVE,W DICKENS AVE,60647,-87.69726,41.91959
N CALIFORNIA AVE & W DIVERSEY AVE,N CALIFORNIA AVE,W DIVERSEY AVE,60647,-87.69762,41.9321
N CALIFORNIA AVE & W DIVISION ST,N CALIFORNIA AVE,W DIVISION ST,60622,-87.69688,41.90293
N CALIFORNIA AVE & W ESTES AVE,N CALIFORNIA AVE,W ESTES AVE,60645,-87.69975,42.01027
N CALIFORNIA AVE & W EVERGREEN AVE,N CALIFORNIA AVE,W EVERGREEN AVE,60622,-87.69695,41.90566
N CALIFORNIA AVE & W FARGO AVE,N CALIFORNIA AVE,W FARGO AVE,60645,-87.69963,42.01661
N CALIFORNIA AVE & W FARRAGUT AVE,N CALIFORNIA AVE,W FARRAGUT AVE,60625,-87.69895,41.97673
N CALIFORNIA AVE & W FARWELL AVE,N CALIFORNIA AVE,W FARWELL AVE,60645,-87.69982,42.00575
N CALIFORNIA AVE & W FITCH AVE,N CALIFORNIA AVE,W FITCH AVE,60645,-87.69973,42.01117
N CALIFORNIA AVE & W FLETCHER ST,N CALIFORNIA AVE,W FLETCHER ST,60618,-87.6978,41.93848
N CALIFORNIA AVE & W FOSTER AVE,N CALIFORNIA AVE,W FOSTER AVE,60625,-87.69892,41.97582
N CALIFORNIA AVE & W FRANCIS PL,N CALIFORNIA AVE,W FRANCIS PL,60647,-87.69722,41.91814
N CALIFORNIA AVE & W FULLERTON AVE,N CALIFORNIA AVE,W FULLERTON AVE,60647,-87.69741,41.92481
N CALIFORNIA AVE & W FULTON ST,N CALIFORNIA AVE,W FULTON ST,60612,-87.69643,41.88654
N CALIFORNIA AVE & W GEORGE ST,N CALIFORNIA AVE,W GEORGE ST,60618,-87.69768,41.93446
N CALIFORNIA AVE & W GLENLAKE AVE,N CALIFORNIA AVE,W GLENLAKE AVE,60659,-87.69946,41.99219
N CALIFORNIA AVE & W GRACE ST,N CALIFORNIA AVE,W GRACE ST,60618,-87.69814,41.95033
N CALIFORNIA AVE & W GRAND AVE,N CALIFORNIA AVE,W GRAND AVE,60612,-87.69667,41.89433
N CALIFORNIA AVE & W GRANVILLE AVE,N CALIFORNIA AVE,W GRANVILLE AVE,60659,-87.69952,41.99398
N CALIFORNIA AVE & W GREENLEAF AVE,N CALIFORNIA AVE,W GREENLEAF AVE,60645,-87.69976,42.00936
N CALIFORNIA AVE & W GREGORY ST,N CALIFORNIA AVE,W GREGORY ST,60625,-87.69913,41.98221
N CALIFORNIA AVE & W GUNNISON ST,N CALIFORNIA AVE,W GUNNISON ST,60625,-87.69873,41.96963
N CALIFORNIA AVE & W HADDON AVE,N CALIFORNIA AVE,W HADDON AVE,60622,-87.69686,41.90199
N CALIFORNIA AVE & W HENDERSON ST,N CALIFORNIA AVE,W HENDERSON ST,60618,-87.6979,41.94188
N CALIFORNIA AVE & W HIRSCH ST,N CALIFORNIA AVE,W HIRSCH ST,60622,-87.69697,41.90658
N CALIFORNIA AVE & W HOLLYWOOD AVE,N CALIFORNIA AVE,W HOLLYWOOD AVE,60659,-87.69922,41.98494
N CALIFORNIA AVE & W HOWARD ST,N CALIFORNIA AVE,W HOWARD ST,0,-87.69959,42.01933
N CALIFORNIA AVE & W IOWA ST,N CALIFORNIA AVE,W IOWA ST,60622,-87.69675,41.89746
N CALIFORNIA AVE & W IRVING PARK RD,N CALIFORNIA AVE,W IRVING PARK RD,60618,-87.69824,41.95397
N CALIFORNIA AVE & W JARLATH ST,N CALIFORNIA AVE,W JARLATH ST,60645,-87.69971,42.01298
N CALIFORNIA AVE & W JARVIS AVE,N CALIFORNIA AVE,W JARVIS AVE,60645,-87.69965,42.0157
N CALIFORNIA AVE & W JEROME ST,N CALIFORNIA AVE,W JEROME ST,60645,-87.6996,42.01842
N CALIFORNIA AVE & W LAKE ST,N CALIFORNIA AVE,W LAKE ST,60612,-87.69637,41.88424
N CALIFORNIA AVE & W LAWRENCE AVE,N CALIFORNIA AVE,W LAWRENCE AVE,60625,-87.69869,41.96853
N CALIFORNIA AVE & W LE MOYNE DR,N CALIFORNIA AVE,W LE MOYNE DR,60622,-87.69701,41.9084
N CALIFORNIA AVE & W LOGAN BLVD,N CALIFORNIA AVE,W LOGAN BLVD,60647,-87.69752,41.92847
N CALIFORNIA AVE & W LUNT AVE,N CALIFORNIA AVE,W LUNT AVE,60645,-87.69977,42.00846
N CALIFORNIA AVE & W LYNDALE ST,N CALIFORNIA AVE,W LYNDALE ST,60647,-87.69734,41.92242
N CALIFORNIA AVE & W MADISON ST,N CALIFORNIA AVE,W MADISON ST,60612,-87.69629,41.88108
N CALIFORNIA AVE & W MAYPOLE AVE,N CALIFORNIA AVE,W MAYPOLE AVE,60612,-87.69636,41.88365
N CALIFORNIA AVE & W MCLEAN AVE,N CALIFORNIA AVE,W MCLEAN AVE,60647,-87.69723,41.91854
N CALIFORNIA AVE & W MEDILL AVE,N CALIFORNIA AVE,W MEDILL AVE,60647,-87.69739,41.92386
N CALIFORNIA AVE & W MELROSE ST,N CALIFORNIA AVE,W MELROSE ST,60618,-87.69785,41.94024
N CALIFORNIA AVE & W MONTROSE AVE,N CALIFORNIA AVE,W MONTROSE AVE,60625,-87.69848,41.96125
N CALIFORNIA AVE & W MORSE AVE,N CALIFORNIA AVE,W MORSE AVE,60645,-87.6998,42.00666
N CALIFORNIA AVE & W NELSON ST,N CALIFORNIA AVE,W NELSON ST,60618,-87.69775,41.93666
N CALIFORNIA AVE & W NORTH AVE,N CALIFORNIA AVE,W NORTH AVE,60647,-87.69703,41.91022
N CALIFORNIA AVE & W NORTH SHORE AVE,N CALIFORNIA AVE,W NORTH SHORE AVE,60645,-87.69979,42.00302
N CALIFORNIA AVE & W PALMER ST,N CALIFORNIA AVE,W PALMER ST,60647,-87.69732,41.92169
N CALIFORNIA AVE & W PETERSON AVE,N CALIFORNIA AVE,W PETERSON AVE,60659,-87.6994,41.99044
N CALIFORNIA AVE & W POTOMAC AVE,N CALIFORNIA AVE,W POTOMAC AVE,60622,-87.69692,41.90475
N CALIFORNIA AVE & W PRATT BLVD,N CALIFORNIA AVE,W PRATT BLVD,60645,-87.69983,42.00485
N CALIFORNIA AVE & W RASCHER AVE,N CALIFORNIA AVE,W RASCHER AVE,60625,-87.69907,41.98038
N CALIFORNIA AVE & W ROSCOE ST,N CALIFORNIA AVE,W ROSCOE ST,60618,-87.69792,41.94279
N CALIFORNIA AVE & W ROSEMONT AVE,N CALIFORNIA AVE,W ROSEMONT AVE,60659,-87.69958,41.99577
N CALIFORNIA AVE & W SCHUBERT AVE,N CALIFORNIA AVE,W SCHUBERT AVE,60647,-87.69757,41.93028
N CALIFORNIA AVE & W SHAKESPEARE AVE,N CALIFORNIA AVE,W SHAKESPEARE AVE,60647,-87.69729,41.92064
N CALIFORNIA AVE & W SHERWIN AVE,N CALIFORNIA AVE,W SHERWIN AVE,60645,-87.69967,42.01479
N CALIFORNIA AVE & W SUMMERDALE AVE,N CALIFORNIA AVE,W SUMMERDALE AVE,60625,-87.69901,41.97856
N CALIFORNIA AVE & W SUNNYSIDE AVE,N CALIFORNIA AVE,W SUNNYSIDE AVE,60625,-87.69852,41.96308
N CALIFORNIA AVE & W SUPERIOR ST,N CALIFORNIA AVE,W SUPERIOR ST,60612,-87.69667,41.89472
N CALIFORNIA AVE & W THOMAS ST,N CALIFORNIA AVE,W THOMAS ST,60622,-87.69684,41.90111
N CALIFORNIA AVE & W THORNDALE AVE,N CALIFORNIA AVE,W THORNDALE AVE,60659,-87.69934,41.98858
N CALIFORNIA AVE & W TOUHY AVE,N CALIFORNIA AVE,W TOUHY AVE,60645,-87.69972,42.01207
N CALIFORNIA AVE & W WABANSIA AVE,N CALIFORNIA AVE,W WABANSIA AVE,60647,-87.69705,41.91236
N CALIFORNIA AVE & W WALNUT ST,N CALIFORNIA AVE,W WALNUT ST,60612,-87.69641,41.88551
N CALIFORNIA AVE & W WALTON ST,N CALIFORNIA AVE,W WALTON ST,60622,-87.69676,41.89807
N CALIFORNIA AVE & W WARREN BLVD,N CALIFORNIA AVE,W WARREN BLVD,60612,-87.69631,41.88199
N CALIFORNIA AVE & W WASHINGTON BLVD,N CALIFORNIA AVE,W WASHINGTON BLVD,60612,-87.69634,41.8829
N CALIFORNIA AVE & W WAVELAND AVE,N CALIFORNIA AVE,W WAVELAND AVE,60618,-87.69808,41.9485
N CALIFORNIA AVE & W WELLINGTON AVE,N CALIFORNIA AVE,W WELLINGTON AVE,60618,-87.69772,41.93574
N CALIFORNIA AVE & W WINNEMAC AVE,N CALIFORNIA AVE,W WINNEMAC AVE,60625,-87.69884,41.97309
N CALIFORNIA AVE & W WINONA ST,N CALIFORNIA AVE,W WINONA ST,60625,-87.69889,41.97473
N CAMBRIDGE AVE & W BELDEN AVE,N CAMBRIDGE AVE,W BELDEN AVE,60614,-87.64222,41.92373
N CAMBRIDGE AVE & W BELMONT AVE,N CAMBRIDGE AVE,W BELMONT AVE,60657,-87.64319,41.94007
N CAMBRIDGE AVE & W BRIAR PL,N CAMBRIDGE AVE,W BRIAR PL,60657,-87.64314,41.93871
N CAMBRIDGE AVE & W CHESTNUT ST,N CAMBRIDGE AVE,W CHESTNUT ST,60610,-87.64181,41.89807
N CAMBRIDGE AVE & W CHICAGO AVE,N CAMBRIDGE AVE,W CHICAGO AVE,60654,-87.64175,41.89649
N CAMBRIDGE AVE & W DELAWARE PL,N CAMBRIDGE AVE,W DELAWARE PL,60610,-87.64186,41.89934
N CAMBRIDGE AVE & W DIVERSEY PKWY,N CAMBRIDGE AVE,W DIVERSEY PKWY,60657,-87.64274,41.93284
N CAMBRIDGE AVE & W DIVISION ST,N CAMBRIDGE AVE,W DIVISION ST,60610,-87.64221,41.90373
N CAMBRIDGE AVE & W ELM ST,N CAMBRIDGE AVE,W ELM ST,60610,-87.64216,41.90268
N CAMBRIDGE AVE & W FULLERTON PKWY,N CAMBRIDGE AVE,W FULLERTON PKWY,60614,-87.64275,41.92555
N CAMBRIDGE AVE & W HOBBIE ST,N CAMBRIDGE AVE,W HOBBIE ST,60610,-87.64213,41.90152
N CAMBRIDGE AVE & W IOWA ST,N CAMBRIDGE AVE,W IOWA ST,60610,-87.64182,41.89835
N CAMBRIDGE AVE & W LOCUST ST,N CAMBRIDGE AVE,W LOCUST ST,60610,-87.64184,41.89885
N CAMBRIDGE AVE & W OAK ST,N CAMBRIDGE AVE,W OAK ST,60610,-87.64209,41.90043
N CAMBRIDGE AVE & W PEARSON ST,N CAMBRIDGE AVE,W PEARSON ST,60610,-87.64178,41.89736
N CAMBRIDGE AVE & W SURF ST,N CAMBRIDGE AVE,W SURF ST,60657,-87.64279,41.93428
N CAMBRIDGE AVE & W WALTON ST,N CAMBRIDGE AVE,W WALTON ST,60610,-87.64188,41.89984
N CAMPBELL AVE & N MILWAUKEE AVE,N CAMPBELL AVE,N MILWAUKEE AVE,60647,-87.68921,41.91794
N CAMPBELL AVE & W ADDISON ST,N CAMPBELL AVE,W ADDISON ST,60618,-87.69068,41.94673
N CAMPBELL AVE & W ALBION AVE,N CAMPBELL AVE,W ALBION AVE,60645,-87.69242,42.00132
N CAMPBELL AVE & W ALTGELD ST,N CAMPBELL AVE,W ALTGELD ST,60647,-87.69015,41.92669
N CAMPBELL AVE & W ARDMORE AVE,N CAMPBELL AVE,W ARDMORE AVE,60659,-87.69199,41.9868
N CAMPBELL AVE & W ARMITAGE AVE,N CAMPBELL AVE,W ARMITAGE AVE,60647,-87.68986,41.91755
N CAMPBELL AVE & W ARTHUR AVE,N CAMPBELL AVE,W ARTHUR AVE,60645,-87.69237,41.9995
N CAMPBELL AVE & W AUGUSTA BLVD,N CAMPBELL AVE,W AUGUSTA BLVD,60622,-87.6894,41.89935
N CAMPBELL AVE & W BALMORAL AVE,N CAMPBELL AVE,W BALMORAL AVE,60625,-87.69174,41.97951
N CAMPBELL AVE & W BARRY AVE,N CAMPBELL AVE,W BARRY AVE,60618,-87.69006,41.93764
N CAMPBELL AVE & W BELDEN AVE,N CAMPBELL AVE,W BELDEN AVE,60647,-87.68935,41.92328
N CAMPBELL AVE & W BELLE PLAINE AVE,N CAMPBELL AVE,W BELLE PLAINE AVE,60618,-87.69097,41.95583
N CAMPBELL AVE & W BELMONT AVE,N CAMPBELL AVE,W BELMONT AVE,60618,-87.6906,41.93944
N CAMPBELL AVE & W BERENICE AVE,N CAMPBELL AVE,W BERENICE AVE,60618,-87.69077,41.95127
N CAMPBELL AVE & W BERTEAU AVE,N CAMPBELL AVE,W BERTEAU AVE,60618,-87.6917,41.95765
N CAMPBELL AVE & W BERWYN AVE,N CAMPBELL AVE,W BERWYN AVE,60625,-87.69104,41.97769
N CAMPBELL AVE & W BIRCHWOOD AVE,N CAMPBELL AVE,W BIRCHWOOD AVE,60645,-87.69255,42.01767
N CAMPBELL AVE & W BLOOMINGDALE AVE,N CAMPBELL AVE,W BLOOMINGDALE AVE,60647,-87.68976,41.91397
N CAMPBELL AVE & W BRADLEY PL,N CAMPBELL AVE,W BRADLEY PL,60618,-87.6908,41.94944
N CAMPBELL AVE & W BRYN MAWR AVE,N CAMPBELL AVE,W BRYN MAWR AVE,60659,-87.69187,41.98316
N CAMPBELL AVE & W BYRON ST,N CAMPBELL AVE,W BYRON ST,60618,-87.69079,41.95218
N CAMPBELL AVE & W CATALPA AVE,N CAMPBELL AVE,W CATALPA AVE,60625,-87.69181,41.98136
N CAMPBELL AVE & W CHARLESTON ST,N CAMPBELL AVE,W CHARLESTON ST,60647,-87.68924,41.91998
N CAMPBELL AVE & W CHICAGO AVE,N CAMPBELL AVE,W CHICAGO AVE,60622,-87.68931,41.89572
N CAMPBELL AVE & W CORTEZ ST,N CAMPBELL AVE,W CORTEZ ST,60622,-87.68942,41.90027
N CAMPBELL AVE & W CORTLAND ST,N CAMPBELL AVE,W CORTLAND ST,60647,-87.68981,41.91574
N CAMPBELL AVE & W COYLE AVE,N CAMPBELL AVE,W COYLE AVE,60645,-87.69255,42.0077
N CAMPBELL AVE & W CULLOM AVE,N CAMPBELL AVE,W CULLOM AVE,60618,-87.69175,41.95947
N CAMPBELL AVE & W CUYLER AVE,N CAMPBELL AVE,W CUYLER AVE,60618,-87.69094,41.95492
N CAMPBELL AVE & W DAKIN ST,N CAMPBELL AVE,W DAKIN ST,60618,-87.69082,41.95308
N CAMPBELL AVE & W DEVON AVE,N CAMPBELL AVE,W DEVON AVE,60645,-87.69232,41.99769
N CAMPBELL AVE & W DIVERSEY AVE,N CAMPBELL AVE,W DIVERSEY AVE,60618,-87.69035,41.93215
N CAMPBELL AVE & W DIVISION ST,N CAMPBELL AVE,W DIVISION ST,60622,-87.68949,41.90299
N CAMPBELL AVE & W EASTWOOD AVE,N CAMPBELL AVE,W EASTWOOD AVE,60625,-87.69126,41.96572
N CAMPBELL AVE & W ERIE ST,N CAMPBELL AVE,W ERIE ST,60612,-87.68919,41.893
N CAMPBELL AVE & W FARGO AVE,N CAMPBELL AVE,W FARGO AVE,60645,-87.69256,42.01676
N CAMPBELL AVE & W FARWELL AVE,N CAMPBELL AVE,W FARWELL AVE,60645,-87.69252,42.00589
N CAMPBELL AVE & W FLETCHER ST,N CAMPBELL AVE,W FLETCHER ST,60618,-87.69011,41.9385
N CAMPBELL AVE & W FULLERTON AVE,N CAMPBELL AVE,W FULLERTON AVE,60647,-87.69008,41.92488
N CAMPBELL AVE & W FULTON ST,N CAMPBELL AVE,W FULTON ST,60612,-87.68905,41.88661
N CAMPBELL AVE & W GEORGE ST,N CAMPBELL AVE,W GEORGE ST,60618,-87.69037,41.93397
N CAMPBELL AVE & W GLENLAKE AVE,N CAMPBELL AVE,W GLENLAKE AVE,60659,-87.69215,41.99225
N CAMPBELL AVE & W GRACE ST,N CAMPBELL AVE,W GRACE ST,60618,-87.69073,41.95037
N CAMPBELL AVE & W GRAND AVE,N CAMPBELL AVE,W GRAND AVE,60612,-87.68918,41.89135
N CAMPBELL AVE & W GRANVILLE AVE,N CAMPBELL AVE,W GRANVILLE AVE,60659,-87.69221,41.99406
N CAMPBELL AVE & W HADDON AVE,N CAMPBELL AVE,W HADDON AVE,60622,-87.68947,41.90206
N CAMPBELL AVE & W HIRSCH ST,N CAMPBELL AVE,W HIRSCH ST,60622,-87.68958,41.90664
N CAMPBELL AVE & W HOLLYWOOD AVE,N CAMPBELL AVE,W HOLLYWOOD AVE,60659,-87.69193,41.98498
N CAMPBELL AVE & W HOMER ST,N CAMPBELL AVE,W HOMER ST,60647,-87.68983,41.91665
N CAMPBELL AVE & W HUBBARD ST,N CAMPBELL AVE,W HUBBARD ST,60612,-87.68911,41.88963
N CAMPBELL AVE & W HURON ST,N CAMPBELL AVE,W HURON ST,60612,-87.68924,41.89391
N CAMPBELL AVE & W HUTCHINSON ST,N CAMPBELL AVE,W HUTCHINSON ST,60618,-87.69172,41.95856
N CAMPBELL AVE & W IOWA ST,N CAMPBELL AVE,W IOWA ST,60622,-87.68935,41.89753
N CAMPBELL AVE & W IRVING PARK RD,N CAMPBELL AVE,W IRVING PARK RD,60618,-87.69087,41.954
N CAMPBELL AVE & W JARVIS AVE,N CAMPBELL AVE,W JARVIS AVE,60645,-87.69257,42.01586
N CAMPBELL AVE & W LAKE ST,N CAMPBELL AVE,W LAKE ST,60612,-87.68899,41.88454
N CAMPBELL AVE & W LAWRENCE AVE,N CAMPBELL AVE,W LAWRENCE AVE,60625,-87.69135,41.96859
N CAMPBELL AVE & W LE MOYNE ST,N CAMPBELL AVE,W LE MOYNE ST,60622,-87.68963,41.90847
N CAMPBELL AVE & W LELAND AVE,N CAMPBELL AVE,W LELAND AVE,60625,-87.6913,41.96676
N CAMPBELL AVE & W LOGAN BLVD,N CAMPBELL AVE,W LOGAN BLVD,60647,-87.69022,41.92851
N CAMPBELL AVE & W LUNT AVE,N CAMPBELL AVE,W LUNT AVE,60645,-87.69257,42.00861
N CAMPBELL AVE & W LYNDALE ST,N CAMPBELL AVE,W LYNDALE ST,60647,-87.68932,41.92246
N CAMPBELL AVE & W MADISON ST,N CAMPBELL AVE,W MADISON ST,60612,-87.68849,41.88113
N CAMPBELL AVE & W MAYPOLE AVE,N CAMPBELL AVE,W MAYPOLE AVE,60612,-87.68855,41.88376
N CAMPBELL AVE & W MCLEAN AVE,N CAMPBELL AVE,W MCLEAN AVE,60647,-87.6892,41.91858
N CAMPBELL AVE & W MEDILL AVE,N CAMPBELL AVE,W MEDILL AVE,60647,-87.68937,41.92406
N CAMPBELL AVE & W MELROSE ST,N CAMPBELL AVE,W MELROSE ST,60618,-87.69063,41.94072
N CAMPBELL AVE & W MOFFAT ST,N CAMPBELL AVE,W MOFFAT ST,60647,-87.68978,41.91483
N CAMPBELL AVE & W MONTROSE AVE,N CAMPBELL AVE,W MONTROSE AVE,60625,-87.69113,41.9613
N CAMPBELL AVE & W MORSE AVE,N CAMPBELL AVE,W MORSE AVE,60645,-87.69254,42.00679
N CAMPBELL AVE & W NORTH AVE,N CAMPBELL AVE,W NORTH AVE,60647,-87.68967,41.91029
N CAMPBELL AVE & W NORTH SHORE AVE,N CAMPBELL AVE,W NORTH SHORE AVE,60645,-87.69246,42.00315
N CAMPBELL AVE & W OHIO ST,N CAMPBELL AVE,W OHIO ST,60612,-87.68919,41.89209
N CAMPBELL AVE & W PALMER ST,N CAMPBELL AVE,W PALMER ST,60647,-87.68929,41.92164
N CAMPBELL AVE & W PATTERSON AVE,N CAMPBELL AVE,W PATTERSON AVE,60618,-87.69071,41.94761
N CAMPBELL AVE & W PENSACOLA AVE,N CAMPBELL AVE,W PENSACOLA AVE,60618,-87.69178,41.96038
N CAMPBELL AVE & W PETERSON AVE,N CAMPBELL AVE,W PETERSON AVE,60659,-87.6921,41.99048
N CAMPBELL AVE & W POTOMAC AVE,N CAMPBELL AVE,W POTOMAC AVE,60622,-87.68954,41.90482
N CAMPBELL AVE & W PRATT BLVD,N CAMPBELL AVE,W PRATT BLVD,60645,-87.69251,42.00499
N CAMPBELL AVE & W RICE ST,N CAMPBELL AVE,W RICE ST,60622,-87.68933,41.89663
N CAMPBELL AVE & W ROSEMONT AVE,N CAMPBELL AVE,W ROSEMONT AVE,60659,-87.69227,41.99588
N CAMPBELL AVE & W SCHUBERT AVE,N CAMPBELL AVE,W SCHUBERT AVE,60647,-87.69026,41.93034
N CAMPBELL AVE & W SHAKESPEARE AVE,N CAMPBELL AVE,W SHAKESPEARE AVE,60647,-87.68927,41.9208
N CAMPBELL AVE & W SHERWIN AVE,N CAMPBELL AVE,W SHERWIN AVE,60645,-87.69258,42.01498
N CAMPBELL AVE & W SUNNYSIDE AVE,N CAMPBELL AVE,W SUNNYSIDE AVE,60625,-87.69118,41.96312
N CAMPBELL AVE & W SUPERIOR ST,N CAMPBELL AVE,W SUPERIOR ST,60612,-87.68928,41.8948
N CAMPBELL AVE & W THOMAS ST,N CAMPBELL AVE,W THOMAS ST,60622,-87.68944,41.90118
N CAMPBELL AVE & W THORNDALE AVE,N CAMPBELL AVE,W THORNDALE AVE,60659,-87.69204,41.98862
N CAMPBELL AVE & W WABANSIA AVE,N CAMPBELL AVE,W WABANSIA AVE,60647,-87.68971,41.91211
N CAMPBELL AVE & W WALTON ST,N CAMPBELL AVE,W WALTON ST,60622,-87.68937,41.89844
N CAMPBELL AVE & W WARNER AVE,N CAMPBELL AVE,W WARNER AVE,60618,-87.69099,41.95674
N CAMPBELL AVE & W WARREN BLVD,N CAMPBELL AVE,W WARREN BLVD,60612,-87.68851,41.88207
N CAMPBELL AVE & W WASHINGTON BLVD,N CAMPBELL AVE,W WASHINGTON BLVD,60612,-87.68853,41.88299
N CAMPBELL AVE & W WAVELAND AVE,N CAMPBELL AVE,W WAVELAND AVE,60618,-87.69073,41.94852
N CAMPBELL AVE & W WELLINGTON AVE,N CAMPBELL AVE,W WELLINGTON AVE,60618,-87.69044,41.93578
N CAMPBELL AVE & W WILSON AVE,N CAMPBELL AVE,W WILSON AVE,60625,-87.69124,41.96484
N CANAL ST & N CLINTON ST,N CANAL ST,N CLINTON ST,60654,-87.64055,41.88946
N CANAL ST & W FULTON ST,N CANAL ST,W FULTON ST,60606,-87.63989,41.88682
N CANAL ST & W KINZIE ST,N CANAL ST,W KINZIE ST,60654,-87.64024,41.88905
N CANAL ST & W LAKE ST,N CANAL ST,W LAKE ST,60661,-87.63985,41.88572
N CANAL ST & W MADISON ST,N CANAL ST,W MADISON ST,60606,-87.63968,41.88188
N CANAL ST & W RANDOLPH ST,N CANAL ST,W RANDOLPH ST,60606,-87.6398,41.88444
N CANAL ST & W WASHINGTON BLVD,N CANAL ST,W WASHINGTON BLVD,60606,-87.63974,41.88318
N CANFIELD AVE & N OZANAM AVE,N CANFIELD AVE,N OZANAM AVE,60631,-87.82235,41.99175
N CANFIELD AVE & W ARDMORE AVE,N CANFIELD AVE,W ARDMORE AVE,60631,-87.82315,41.9858
N CANFIELD AVE & W BALMORAL AVE,N CANFIELD AVE,W BALMORAL AVE,60656,-87.82421,41.97773
N CANFIELD AVE & W BERWYN AVE,N CANFIELD AVE,W BERWYN AVE,60656,-87.82449,41.97557
N CANFIELD AVE & W BRYN MAWR AVE,N CANFIELD AVE,W BRYN MAWR AVE,60631,-87.82374,41.98137
N CANFIELD AVE & W CATALPA AVE,N CANFIELD AVE,W CATALPA AVE,60656,-87.82397,41.97955
N CANFIELD AVE & W FARRAGUT AVE,N CANFIELD AVE,W FARRAGUT AVE,60656,-87.82456,41.975
N CANFIELD AVE & W FOSTER AVE,N CANFIELD AVE,W FOSTER AVE,60656,-87.82469,41.97409
N CANFIELD AVE & W GLENLAKE AVE,N CANFIELD AVE,W GLENLAKE AVE,60631,-87.82256,41.99022
N CANFIELD AVE & W GREGORY ST,N CANFIELD AVE,W GREGORY ST,60656,-87.82386,41.98046
N CANFIELD AVE & W HIGGINS RD,N CANFIELD AVE,W HIGGINS RD,,-87.82333,41.98451
N CANFIELD AVE & W HORTENSE AVE,N CANFIELD AVE,W HORTENSE AVE,60631,-87.82167,41.99589
N CANFIELD AVE & W MEMORY LN,N CANFIELD AVE,W MEMORY LN,60656,-87.82674,41.97352
N CANFIELD AVE & W OLIVE AVE,N CANFIELD AVE,W OLIVE AVE,60631,-87.82362,41.98227
N CANFIELD AVE & W PALATINE AVE,N CANFIELD AVE,W PALATINE AVE,60631,-87.82185,41.99498
N CANFIELD AVE & W RASCHER AVE,N CANFIELD AVE,W RASCHER AVE,60656,-87.82409,41.97864
N CANFIELD AVE & W ROSEDALE AVE,N CANFIELD AVE,W ROSEDALE AVE,60631,-87.82292,41.98755
N CANFIELD AVE & W SEMINOLE ST,N CANFIELD AVE,W SEMINOLE ST,60631,-87.82351,41.98319
N CANFIELD AVE & W SERBIAN RD,N CANFIELD AVE,W SERBIAN RD,60631,-87.82344,41.98366
N CANFIELD AVE & W SUMMERDALE AVE,N CANFIELD AVE,W SUMMERDALE AVE,60656,-87.82433,41.97682
N CANFIELD AVE & W TALCOTT AVE,N CANFIELD AVE,W TALCOTT AVE,60631,-87.82213,41.99333
N CANFIELD AVE & W THORNDALE AVE,N CANFIELD AVE,W THORNDALE AVE,60631,-87.82304,41.98667
N CANFIELD AVE & W VICTORIA ST,N CANFIELD AVE,W VICTORIA ST,60631,-87.82324,41.98512
N CANNON DR & N LAKE SHORE DR,N CANNON DR,N LAKE SHORE DR,60614,-87.63713,41.93111
N CANNON DR & N LSD LA SALLE ST XR,N CANNON DR,N LSD LA SALLE ST XR,60614,-87.62747,41.9144
N CANNON DR & W FULLERTON PKWY,N CANNON DR,W FULLERTON PKWY,60614,-87.63363,41.92575
N CANNON DR & W LA SALLE DR,N CANNON DR,W LA SALLE DR,60614,-87.62995,41.91292
N CARPENTER ST & N MILWAUKEE AVE,N CARPENTER ST,N MILWAUKEE AVE,60642,-87.65357,41.89506
N CARPENTER ST & W ANCONA ST,N CARPENTER ST,W ANCONA ST,60642,-87.65354,41.89401
N CARPENTER ST & W CARROLL AVE,N CARPENTER ST,W CARROLL AVE,60607,-87.65337,41.88775
N CARPENTER ST & W CHICAGO AVE,N CARPENTER ST,W CHICAGO AVE,60642,-87.65361,41.89629
N CARPENTER ST & W FRY ST,N CARPENTER ST,W FRY ST,60642,-87.65366,41.89736
N CARPENTER ST & W FULTON MARKET,N CARPENTER ST,W FULTON MARKET,60607,-87.65334,41.88672
N CARPENTER ST & W GRAND AVE,N CARPENTER ST,W GRAND AVE,60642,-87.65346,41.89112
N CARPENTER ST & W HUBBARD ST,N CARPENTER ST,W HUBBARD ST,60642,-87.65343,41.89003
N CARPENTER ST & W HURON ST,N CARPENTER ST,W HURON ST,60642,-87.65355,41.89439
N CARPENTER ST & W KINZIE ST,N CARPENTER ST,W KINZIE ST,60642,-87.6534,41.88898
N CARPENTER ST & W LAKE ST,N CARPENTER ST,W LAKE ST,60607,-87.65331,41.88556
N CARPENTER ST & W MADISON ST,N CARPENTER ST,W MADISON ST,60607,-87.65319,41.88168
N CARPENTER ST & W RANDOLPH ST,N CARPENTER ST,W RANDOLPH ST,60607,-87.65327,41.88419
N CARPENTER ST & W WASHINGTON BLVD,N CARPENTER ST,W WASHINGTON BLVD,60607,-87.65323,41.88304
N CENTRAL AVE & N DOWAGIAC AVE,N CENTRAL AVE,N DOWAGIAC AVE,0,-87.76196,42.00264
N CENTRAL AVE & N ELSTON AVE,N CENTRAL AVE,N ELSTON AVE,60646,-87.7683,41.985
N CENTRAL AVE & N HIAWATHA AVE,N CENTRAL AVE,N HIAWATHA AVE,60646,-87.76291,41.99984
N CENTRAL AVE & N IONIA AVE,N CENTRAL AVE,N IONIA AVE,60646,-87.76227,42.00169
N CENTRAL AVE & N KENNEDY CENTRAL AV ER,N CENTRAL AVE,N KENNEDY CENTRAL AV ER,60630,-87.76853,41.97313
N CENTRAL AVE & N LEHIGH AVE,N CENTRAL AVE,N LEHIGH AVE,60646,-87.7646,41.99512
N CENTRAL AVE & N LEONARD AVE,N CENTRAL AVE,N LEONARD AVE,60646,-87.76824,41.9872
N CENTRAL AVE & N LEOTI AVE,N CENTRAL AVE,N LEOTI AVE,60646,-87.76355,41.998
N CENTRAL AVE & N LOUISE AVE,N CENTRAL AVE,N LOUISE AVE,60646,-87.76489,41.99434
N CENTRAL AVE & N LOVEJOY AVE,N CENTRAL AVE,N LOVEJOY AVE,60630,-87.76843,41.97814
N CENTRAL AVE & N MANTON AVE,N CENTRAL AVE,N MANTON AVE,60646,-87.76827,41.98609
N CENTRAL AVE & N NORTHWEST HWY,N CENTRAL AVE,N NORTHWEST HWY,60630,-87.76849,41.97522
N CENTRAL AVE & N PRESCOTT AVE,N CENTRAL AVE,N PRESCOTT AVE,60646,-87.76557,41.99251
N CENTRAL AVE & N SAUGANASH AVE,N CENTRAL AVE,N SAUGANASH AVE,60646,-87.76185,42.0037
N CENTRAL AVE & N SIOUX AVE,N CENTRAL AVE,N SIOUX AVE,60646,-87.76259,42.00078
N CENTRAL AVE & N TAHOMA AVE,N CENTRAL AVE,N TAHOMA AVE,60646,-87.76323,41.99892
N CENTRAL AVE & W ADDISON ST,N CENTRAL AVE,W ADDISON ST,60634,-87.76676,41.94588
N CENTRAL AVE & W AGATITE AVE,N CENTRAL AVE,W AGATITE AVE,60630,-87.76727,41.9614
N CENTRAL AVE & W AINSLIE ST,N CENTRAL AVE,W AINSLIE ST,60630,-87.76754,41.9696
N CENTRAL AVE & W ALTGELD ST,N CENTRAL AVE,W ALTGELD ST,60639,-87.76605,41.9258
N CENTRAL AVE & W ARDMORE AVE,N CENTRAL AVE,W ARDMORE AVE,60646,-87.76828,41.98585
N CENTRAL AVE & W AUGUSTA BLVD,N CENTRAL AVE,W AUGUSTA BLVD,60651,-87.76552,41.8985
N CENTRAL AVE & W BALMORAL AVE,N CENTRAL AVE,W BALMORAL AVE,60630,-87.76841,41.97931
N CENTRAL AVE & W BARRY AVE,N CENTRAL AVE,W BARRY AVE,60634,-87.76643,41.93675
N CENTRAL AVE & W BELDEN AVE,N CENTRAL AVE,W BELDEN AVE,60639,-87.76592,41.92216
N CENTRAL AVE & W BELLE PLAINE AVE,N CENTRAL AVE,W BELLE PLAINE AVE,60634,-87.76706,41.95501
N CENTRAL AVE & W BELMONT AVE,N CENTRAL AVE,W BELMONT AVE,60634,-87.7665,41.93857
N CENTRAL AVE & W BERENICE AVE,N CENTRAL AVE,W BERENICE AVE,60634,-87.76691,41.95043
N CENTRAL AVE & W BERTEAU AVE,N CENTRAL AVE,W BERTEAU AVE,60634,-87.76712,41.95683
N CENTRAL AVE & W BERWYN AVE,N CENTRAL AVE,W BERWYN AVE,60630,-87.76845,41.97738
N CENTRAL AVE & W BLOOMINGDALE AVE,N CENTRAL AVE,W BLOOMINGDALE AVE,60639,-87.76563,41.91303
N CENTRAL AVE & W BRYN MAWR AVE,N CENTRAL AVE,W BRYN MAWR AVE,60646,-87.76834,41.98294
N CENTRAL AVE & W BYRON ST,N CENTRAL AVE,W BYRON ST,60634,-87.76694,41.95133
N CENTRAL AVE & W CATALPA AVE,N CENTRAL AVE,W CATALPA AVE,60630,-87.76838,41.98112
N CENTRAL AVE & W CHICAGO AVE,N CENTRAL AVE,W CHICAGO AVE,60651,-87.76539,41.89485
N CENTRAL AVE & W CORCORAN PL,N CENTRAL AVE,W CORCORAN PL,60644,-87.76511,41.88722
N CENTRAL AVE & W CORNELIA AVE,N CENTRAL AVE,W CORNELIA AVE,60634,-87.76669,41.94405
N CENTRAL AVE & W CORTEZ ST,N CENTRAL AVE,W CORTEZ ST,60651,-87.76556,41.89941
N CENTRAL AVE & W CORTLAND ST,N CENTRAL AVE,W CORTLAND ST,60639,-87.76554,41.91436
N CENTRAL AVE & W CRYSTAL ST,N CENTRAL AVE,W CRYSTAL ST,60651,-87.76569,41.90305
N CENTRAL AVE & W CULLOM AVE,N CENTRAL AVE,W CULLOM AVE,60634,-87.76718,41.95866
N CENTRAL AVE & W DAKIN ST,N CENTRAL AVE,W DAKIN ST,60634,-87.76697,41.95224
N CENTRAL AVE & W DEVON AVE,N CENTRAL AVE,W DEVON AVE,60646,-87.76379,41.99733
N CENTRAL AVE & W DIVERSEY AVE,N CENTRAL AVE,W DIVERSEY AVE,60634,-87.76625,41.93128
N CENTRAL AVE & W DIVISION ST,N CENTRAL AVE,W DIVISION ST,60651,-87.76565,41.90214
N CENTRAL AVE & W DRUMMOND PL,N CENTRAL AVE,W DRUMMOND PL,60639,-87.76614,41.92854
N CENTRAL AVE & W EASTWOOD AVE,N CENTRAL AVE,W EASTWOOD AVE,60630,-87.76739,41.96504
N CENTRAL AVE & W EDDY ST,N CENTRAL AVE,W EDDY ST,60634,-87.76672,41.94496
N CENTRAL AVE & W FARRAGUT AVE,N CENTRAL AVE,W FARRAGUT AVE,60630,-87.76848,41.97658
N CENTRAL AVE & W FOSTER AVE,N CENTRAL AVE,W FOSTER AVE,60630,-87.76848,41.97568
N CENTRAL AVE & W FULLERTON AVE,N CENTRAL AVE,W FULLERTON AVE,60639,-87.76599,41.92398
N CENTRAL AVE & W FULTON ST,N CENTRAL AVE,W FULTON ST,60644,-87.76506,41.88572
N CENTRAL AVE & W GEORGE ST,N CENTRAL AVE,W GEORGE ST,60634,-87.76631,41.9331
N CENTRAL AVE & W GIDDINGS ST,N CENTRAL AVE,W GIDDINGS ST,60630,-87.76745,41.96687
N CENTRAL AVE & W GOODMAN ST,N CENTRAL AVE,W GOODMAN ST,60630,-87.76855,41.9717
N CENTRAL AVE & W GRACE ST,N CENTRAL AVE,W GRACE ST,60634,-87.76688,41.94953
N CENTRAL AVE & W GRAND AVE,N CENTRAL AVE,W GRAND AVE,60639,-87.76541,41.91869
N CENTRAL AVE & W GUNNISON ST,N CENTRAL AVE,W GUNNISON ST,60630,-87.7675,41.96869
N CENTRAL AVE & W HADDON AVE,N CENTRAL AVE,W HADDON AVE,60651,-87.76562,41.90123
N CENTRAL AVE & W HENDERSON ST,N CENTRAL AVE,W HENDERSON ST,60634,-87.7666,41.94131
N CENTRAL AVE & W HIGGINS AVE,N CENTRAL AVE,W HIGGINS AVE,60630,-87.76756,41.97033
N CENTRAL AVE & W HIRSCH ST,N CENTRAL AVE,W HIRSCH ST,60651,-87.76578,41.90576
N CENTRAL AVE & W HURON ST,N CENTRAL AVE,W HURON ST,60644,-87.76532,41.89293
N CENTRAL AVE & W HUTCHINSON ST,N CENTRAL AVE,W HUTCHINSON ST,60634,-87.76715,41.95775
N CENTRAL AVE & W IOWA ST,N CENTRAL AVE,W IOWA ST,60651,-87.76546,41.89667
N CENTRAL AVE & W IRVING PARK RD,N CENTRAL AVE,W IRVING PARK RD,60634,-87.767,41.95318
N CENTRAL AVE & W KAMERLING AVE,N CENTRAL AVE,W KAMERLING AVE,60651,-87.76575,41.90485
N CENTRAL AVE & W LAKE ST,N CENTRAL AVE,W LAKE ST,60644,-87.76512,41.88773
N CENTRAL AVE & W LAWRENCE AVE,N CENTRAL AVE,W LAWRENCE AVE,60630,-87.76748,41.96778
N CENTRAL AVE & W LE MOYNE ST,N CENTRAL AVE,W LE MOYNE ST,60651,-87.76585,41.90757
N CENTRAL AVE & W LELAND AVE,N CENTRAL AVE,W LELAND AVE,60630,-87.76742,41.96596
N CENTRAL AVE & W MADISON ST,N CENTRAL AVE,W MADISON ST,60644,-87.76486,41.88025
N CENTRAL AVE & W MELROSE ST,N CENTRAL AVE,W MELROSE ST,60634,-87.76653,41.93949
N CENTRAL AVE & W MONTROSE AVE,N CENTRAL AVE,W MONTROSE AVE,60634,-87.76724,41.96048
N CENTRAL AVE & W MORSE AVE,N CENTRAL AVE,W MORSE AVE,0,-87.76174,42.00638
N CENTRAL AVE & W NEWPORT AVE,N CENTRAL AVE,W NEWPORT AVE,60634,-87.76666,41.94314
N CENTRAL AVE & W NORTH AVE,N CENTRAL AVE,W NORTH AVE,60639,-87.76572,41.90938
N CENTRAL AVE & W OHIO ST,N CENTRAL AVE,W OHIO ST,60644,-87.76525,41.8911
N CENTRAL AVE & W PALMER ST,N CENTRAL AVE,W PALMER ST,60639,-87.76586,41.92041
N CENTRAL AVE & W PARKER AVE,N CENTRAL AVE,W PARKER AVE,60639,-87.76621,41.93037
N CENTRAL AVE & W PATTERSON AVE,N CENTRAL AVE,W PATTERSON AVE,60634,-87.76679,41.94679
N CENTRAL AVE & W PENSACOLA AVE,N CENTRAL AVE,W PENSACOLA AVE,60634,-87.76721,41.95957
N CENTRAL AVE & W POTOMAC AVE,N CENTRAL AVE,W POTOMAC AVE,60651,-87.76572,41.90395
N CENTRAL AVE & W RACE AVE,N CENTRAL AVE,W RACE AVE,60644,-87.76518,41.88929
N CENTRAL AVE & W RICE ST,N CENTRAL AVE,W RICE ST,60651,-87.76543,41.89576
N CENTRAL AVE & W ROSCOE ST,N CENTRAL AVE,W ROSCOE ST,60634,-87.76663,41.94223
N CENTRAL AVE & W SCHOOL ST,N CENTRAL AVE,W SCHOOL ST,60634,-87.76656,41.9404
N CENTRAL AVE & W SCHUBERT AVE,N CENTRAL AVE,W SCHUBERT AVE,60639,-87.76618,41.92945
N CENTRAL AVE & W SEMINOLE ST,N CENTRAL AVE,W SEMINOLE ST,60646,-87.7683,41.98477
N CENTRAL AVE & W SUNNYSIDE AVE,N CENTRAL AVE,W SUNNYSIDE AVE,60630,-87.7673,41.96235
N CENTRAL AVE & W THOMAS ST,N CENTRAL AVE,W THOMAS ST,60651,-87.76559,41.90032
N CENTRAL AVE & W WABANSIA AVE,N CENTRAL AVE,W WABANSIA AVE,60639,-87.76557,41.9112
N CENTRAL AVE & W WALTON ST,N CENTRAL AVE,W WALTON ST,60651,-87.76549,41.89758
N CENTRAL AVE & W WARWICK AVE,N CENTRAL AVE,W WARWICK AVE,60634,-87.76685,41.94862
N CENTRAL AVE & W WASHINGTON BLVD,N CENTRAL AVE,W WASHINGTON BLVD,60644,-87.76493,41.88224
N CENTRAL AVE & W WAVELAND AVE,N CENTRAL AVE,W WAVELAND AVE,60634,-87.76682,41.9477
N CENTRAL AVE & W WELLINGTON AVE,N CENTRAL AVE,W WELLINGTON AVE,60634,-87.76637,41.93493
N CENTRAL AVE & W WEST END AVE,N CENTRAL AVE,W WEST END AVE,60644,-87.765,41.88424
N CENTRAL AVE & W WILSON AVE,N CENTRAL AVE,W WILSON AVE,60630,-87.76736,41.96413
N CENTRAL AVE & W WINDSOR AVE,N CENTRAL AVE,W WINDSOR AVE,60630,-87.76733,41.96327
N CENTRAL AVE & W WRIGHTWOOD AVE,N CENTRAL AVE,W WRIGHTWOOD AVE,60639,-87.76612,41.92763
N CENTRAL PARK AVE & N ELBRIDGE AVE,N CENTRAL PARK AVE,N ELBRIDGE AVE,60618,-87.71729,41.93538
N CENTRAL PARK AVE & N ELSTON AVE,N CENTRAL PARK AVE,N ELSTON AVE,60618,-87.71778,41.95276
N CENTRAL PARK AVE & N MILWAUKEE AVE,N CENTRAL PARK AVE,N MILWAUKEE AVE,60618,-87.71728,41.93509
N CENTRAL PARK AVE & W AINSLIE ST,N CENTRAL PARK AVE,W AINSLIE ST,60625,-87.7183,41.97017
N CENTRAL PARK AVE & W ALTGELD ST,N CENTRAL PARK AVE,W ALTGELD ST,60647,-87.71704,41.92641
N CENTRAL PARK AVE & W ARDMORE AVE,N CENTRAL PARK AVE,W ARDMORE AVE,60659,-87.71876,41.98658
N CENTRAL PARK AVE & W ARGYLE ST,N CENTRAL PARK AVE,W ARGYLE ST,60625,-87.71835,41.97199
N CENTRAL PARK AVE & W ARMITAGE AVE,N CENTRAL PARK AVE,W ARMITAGE AVE,60647,-87.71677,41.91728
N CENTRAL PARK AVE & W AUGUSTA BLVD,N CENTRAL PARK AVE,W AUGUSTA BLVD,60651,-87.71643,41.89911
N CENTRAL PARK AVE & W BARRY AVE,N CENTRAL PARK AVE,W BARRY AVE,60618,-87.71733,41.93739
N CENTRAL PARK AVE & W BEACH AVE,N CENTRAL PARK AVE,W BEACH AVE,60651,-87.71671,41.90727
N CENTRAL PARK AVE & W BELDEN AVE,N CENTRAL PARK AVE,W BELDEN AVE,60647,-87.71694,41.92277
N CENTRAL PARK AVE & W BELLE PLAINE AVE,N CENTRAL PARK AVE,W BELLE PLAINE AVE,60618,-87.71787,41.95561
N CENTRAL PARK AVE & W BELMONT AVE,N CENTRAL PARK AVE,W BELMONT AVE,60618,-87.7174,41.93922
N CENTRAL PARK AVE & W BERTEAU AVE,N CENTRAL PARK AVE,W BERTEAU AVE,60618,-87.71792,41.95743
N CENTRAL PARK AVE & W BLOOMINGDALE AVE,N CENTRAL PARK AVE,W BLOOMINGDALE AVE,60647,-87.71666,41.91355
N CENTRAL PARK AVE & W BRYN MAWR AVE,N CENTRAL PARK AVE,W BRYN MAWR AVE,60659,-87.71866,41.98294
N CENTRAL PARK AVE & W BYRON ST,N CENTRAL PARK AVE,W BYRON ST,60618,-87.71776,41.95196
N CENTRAL PARK AVE & W CARMEN AVE,N CENTRAL PARK AVE,W CARMEN AVE,60625,-87.7184,41.97382
N CENTRAL PARK AVE & W CARROLL AVE,N CENTRAL PARK AVE,W CARROLL AVE,60624,-87.71609,41.88739
N CENTRAL PARK AVE & W CARROLL DR,N CENTRAL PARK AVE,W CARROLL DR,60624,-87.71613,41.88767
N CENTRAL PARK AVE & W CHICAGO AVE,N CENTRAL PARK AVE,W CHICAGO AVE,60651,-87.71631,41.89546
N CENTRAL PARK AVE & W CORTLAND ST,N CENTRAL PARK AVE,W CORTLAND ST,60647,-87.71672,41.91546
N CENTRAL PARK AVE & W CULLOM AVE,N CENTRAL PARK AVE,W CULLOM AVE,60618,-87.71798,41.95925
N CENTRAL PARK AVE & W DEVON AVE,N CENTRAL PARK AVE,W DEVON AVE,0,-87.71906,41.99728
N CENTRAL PARK AVE & W DICKENS AVE,N CENTRAL PARK AVE,W DICKENS AVE,60647,-87.71683,41.91911
N CENTRAL PARK AVE & W DIVERSEY AVE,N CENTRAL PARK AVE,W DIVERSEY AVE,60618,-87.7172,41.93191
N CENTRAL PARK AVE & W DIVISION ST,N CENTRAL PARK AVE,W DIVISION ST,60651,-87.71656,41.90275
N CENTRAL PARK AVE & W EDDY ST,N CENTRAL PARK AVE,W EDDY ST,60618,-87.7172,41.9456
N CENTRAL PARK AVE & W EVERGREEN AVE,N CENTRAL PARK AVE,W EVERGREEN AVE,60651,-87.71665,41.90547
N CENTRAL PARK AVE & W FOSTER AVE,N CENTRAL PARK AVE,W FOSTER AVE,60625,-87.71842,41.97564
N CENTRAL PARK AVE & W FRANKLIN BLVD,N CENTRAL PARK AVE,W FRANKLIN BLVD,60624,-87.71635,41.88996
N CENTRAL PARK AVE & W FULLERTON AVE,N CENTRAL PARK AVE,W FULLERTON AVE,60647,-87.71699,41.9246
N CENTRAL PARK AVE & W FULTON DR,N CENTRAL PARK AVE,W FULTON DR,60624,-87.71605,41.88628
N CENTRAL PARK AVE & W GARFIELD SQUARE DR,N CENTRAL PARK AVE,W GARFIELD SQUARE DR,60624,-87.71619,41.8904
N CENTRAL PARK AVE & W GEORGE ST,N CENTRAL PARK AVE,W GEORGE ST,60618,-87.71724,41.93374
N CENTRAL PARK AVE & W GLENLAKE AVE,N CENTRAL PARK AVE,W GLENLAKE AVE,60659,-87.71891,41.99198
N CENTRAL PARK AVE & W GRACE ST,N CENTRAL PARK AVE,W GRACE ST,60618,-87.71771,41.95015
N CENTRAL PARK AVE & W GRAND AVE,N CENTRAL PARK AVE,W GRAND AVE,60651,-87.71655,41.90224
N CENTRAL PARK AVE & W GRANVILLE AVE,N CENTRAL PARK AVE,W GRANVILLE AVE,60659,-87.71896,41.99375
N CENTRAL PARK AVE & W HENDERSON ST,N CENTRAL PARK AVE,W HENDERSON ST,60618,-87.71749,41.94219
N CENTRAL PARK AVE & W HIRSCH ST,N CENTRAL PARK AVE,W HIRSCH ST,60651,-87.71668,41.90637
N CENTRAL PARK AVE & W HOLLYWOOD AVE,N CENTRAL PARK AVE,W HOLLYWOOD AVE,60659,-87.71871,41.98476
N CENTRAL PARK AVE & W HURON ST,N CENTRAL PARK AVE,W HURON ST,60624,-87.71626,41.89363
N CENTRAL PARK AVE & W IOWA ST,N CENTRAL PARK AVE,W IOWA ST,60651,-87.71637,41.89729
N CENTRAL PARK AVE & W IRVING PARK RD,N CENTRAL PARK AVE,W IRVING PARK RD,60618,-87.71781,41.95379
N CENTRAL PARK AVE & W LAKE ST,N CENTRAL PARK AVE,W LAKE ST,60624,-87.71602,41.88492
N CENTRAL PARK AVE & W LAWRENCE AVE,N CENTRAL PARK AVE,W LAWRENCE AVE,60625,-87.71825,41.96835
N CENTRAL PARK AVE & W LE MOYNE ST,N CENTRAL PARK AVE,W LE MOYNE ST,60651,-87.71674,41.90818
N CENTRAL PARK AVE & W LELAND AVE,N CENTRAL PARK AVE,W LELAND AVE,60625,-87.7182,41.96653
N CENTRAL PARK AVE & W LYNDALE ST,N CENTRAL PARK AVE,W LYNDALE ST,60647,-87.71691,41.92186
N CENTRAL PARK AVE & W MCLEAN AVE,N CENTRAL PARK AVE,W MCLEAN AVE,60647,-87.7168,41.9182
N CENTRAL PARK AVE & W MEDILL AVE,N CENTRAL PARK AVE,W MEDILL AVE,60647,-87.71697,41.92369
N CENTRAL PARK AVE & W MONTROSE AVE,N CENTRAL PARK AVE,W MONTROSE AVE,60625,-87.71804,41.96107
N CENTRAL PARK AVE & W NORTH AVE,N CENTRAL PARK AVE,W NORTH AVE,60647,-87.7167,41.90999
N CENTRAL PARK AVE & W OAKDALE AVE,N CENTRAL PARK AVE,W OAKDALE AVE,60618,-87.71726,41.93465
N CENTRAL PARK AVE & W OHIO ST,N CENTRAL PARK AVE,W OHIO ST,60624,-87.71621,41.89179
N CENTRAL PARK AVE & W PALMER ST,N CENTRAL PARK AVE,W PALMER ST,60647,-87.71688,41.92094
N CENTRAL PARK AVE & W PETERSON AVE,N CENTRAL PARK AVE,W PETERSON AVE,60659,-87.71886,41.99026
N CENTRAL PARK AVE & W PIERCE AVE,N CENTRAL PARK AVE,W PIERCE AVE,60651,-87.71677,41.90907
N CENTRAL PARK AVE & W POTOMAC AVE,N CENTRAL PARK AVE,W POTOMAC AVE,60651,-87.71608,41.90457
N CENTRAL PARK AVE & W ROSCOE ST,N CENTRAL PARK AVE,W ROSCOE ST,60618,-87.71751,41.94286
N CENTRAL PARK AVE & W ROSEMONT AVE,N CENTRAL PARK AVE,W ROSEMONT AVE,60659,-87.71901,41.99551
N CENTRAL PARK AVE & W SCHOOL ST,N CENTRAL PARK AVE,W SCHOOL ST,60618,-87.71746,41.94104
N CENTRAL PARK AVE & W SCHUBERT AVE,N CENTRAL PARK AVE,W SCHUBERT AVE,60647,-87.71714,41.93009
N CENTRAL PARK AVE & W SHAKESPEARE AVE,N CENTRAL PARK AVE,W SHAKESPEARE AVE,60647,-87.71686,41.92003
N CENTRAL PARK AVE & W SUNNYSIDE AVE,N CENTRAL PARK AVE,W SUNNYSIDE AVE,60625,-87.71809,41.96289
N CENTRAL PARK AVE & W THOMAS ST,N CENTRAL PARK AVE,W THOMAS ST,60651,-87.7165,41.90093
N CENTRAL PARK AVE & W THORNDALE AVE,N CENTRAL PARK AVE,W THORNDALE AVE,60659,-87.71881,41.9884
N CENTRAL PARK AVE & W WABANSIA AVE,N CENTRAL PARK AVE,W WABANSIA AVE,60647,-87.7166,41.91182
N CENTRAL PARK AVE & W WALNUT ST,N CENTRAL PARK AVE,W WALNUT ST,60624,-87.71604,41.88556
N CENTRAL PARK AVE & W WAVELAND AVE,N CENTRAL PARK AVE,W WAVELAND AVE,60618,-87.71766,41.94833
N CENTRAL PARK AVE & W WILSON AVE,N CENTRAL PARK AVE,W WILSON AVE,60625,-87.71814,41.96471
N CENTRAL PARK AVE & W WOLFRAM ST,N CENTRAL PARK AVE,W WOLFRAM ST,60618,-87.71721,41.93283
N CENTRAL PARK AVE & W WRIGHTWOOD AVE,N CENTRAL PARK AVE,W WRIGHTWOOD AVE,60647,-87.71709,41.92825
N CENTRAL PARK BLVD & N CONSERVATORY DR,N CENTRAL PARK BLVD,N CONSERVATORY DR,60624,-87.71657,41.88844
N CENTRAL PARK BLVD & W MONTICELLO AVE,N CENTRAL PARK BLVD,W MONTICELLO AVE,60624,-87.7169,41.88875
N CENTRAL PARK DR & W MADISON ST,N CENTRAL PARK DR,W MADISON ST,60624,-87.71589,41.88086
N CENTRAL PARK DR & W SCHRAEDER DR,N CENTRAL PARK DR,W SCHRAEDER DR,60624,-87.71649,41.88419
N CENTRAL PARK DR & W WASHINGTON BLVD,N CENTRAL PARK DR,W WASHINGTON BLVD,60624,-87.71585,41.88154
N CHALMERS ST & W BELDEN AVE,N CHALMERS ST,W BELDEN AVE,60614,-87.65112,41.9236
N CHALMERS ST & W CHALMERS PL,N CHALMERS ST,W CHALMERS PL,60614,-87.65115,41.92435
N CHALMERS ST & W FULLERTON AVE,N CHALMERS ST,W FULLERTON AVE,60614,-87.65118,41.92542
N CHERRY AVE & N NORTH BRANCH ST,N CHERRY AVE,N NORTH BRANCH ST,60642,-87.65213,41.9012
N CHERRY AVE & W BLACKHAWK ST,N CHERRY AVE,W BLACKHAWK ST,60642,-87.65545,41.90716
N CHERRY AVE & W DIVISION ST,N CHERRY AVE,W DIVISION ST,60642,-87.6541,41.90355
N CHERRY AVE & W EASTMAN ST,N CHERRY AVE,W EASTMAN ST,60642,-87.6553,41.90505
N CHERRY AVE & W NORTH AVE,N CHERRY AVE,W NORTH AVE,60642,-87.65554,41.9108
N CHERRY AVE & W WEED ST,N CHERRY AVE,W WEED ST,60642,-87.65546,41.90875
N CHESTER AVE & W AGATITE AVE,N CHESTER AVE,W AGATITE AVE,60656,-87.8395,41.9606
N CHESTER AVE & W ARGYLE ST,N CHESTER AVE,W ARGYLE ST,60656,-87.83844,41.9702
N CHESTER AVE & W BERWYN AVE,N CHESTER AVE,W BERWYN AVE,60656,-87.83912,41.97519
N CHESTER AVE & W BRODMAN AVE,N CHESTER AVE,W BRODMAN AVE,60656,-87.8395,41.95984
N CHESTER AVE & W BRYN MAWR AVE,N CHESTER AVE,W BRYN MAWR AVE,60631,-87.83904,41.98107
N CHESTER AVE & W CARMEN AVE,N CHESTER AVE,W CARMEN AVE,60656,-87.83843,41.97167
N CHESTER AVE & W CATALPA AVE,N CHESTER AVE,W CATALPA AVE,60656,-87.83906,41.97927
N CHESTER AVE & W CATHERINE AVE,N CHESTER AVE,W CATHERINE AVE,60656,-87.83907,41.97745
N CHESTER AVE & W FOSTER AVE,N CHESTER AVE,W FOSTER AVE,0,-87.83842,41.97383
N CHESTER AVE & W GREGORY ST,N CHESTER AVE,W GREGORY ST,60656,-87.83905,41.98017
N CHESTER AVE & W LELAND AVE,N CHESTER AVE,W LELAND AVE,60656,-87.83886,41.96513
N CHESTER AVE & W MONTROSE AVE,N CHESTER AVE,W MONTROSE AVE,60634,-87.83949,41.95932
N CHESTER AVE & W RASCHER AVE,N CHESTER AVE,W RASCHER AVE,60656,-87.83907,41.97836
